"RegistrationNum","FileNum","Owner","heightFT","lat","lon","city","state","zip5"
1000020,"A1012741","Crown Castle GT Company LLC",13.7,34.508333333333,-120.22291666667,"GAVIOTA","CA","93427"
1000022,"A1012742","Crown Castle GT Company LLC",22.8,37.749083333333,-122.19744444444,"OAKLAND","CA","94601"
1000036,"A1012745","Crown Castle GT Company LLC",25.9,37.696555555556,-121.76958333333,"ALAMEDA","CA","94551"
1000095,"A1012749","Crown Castle GT Company LLC",49.4,36.880277777778,-120.46738888889,"FIREBAUGH","CA","93622"
1000433,"A1031930","CCATT LLC",21.6,36.740277777778,-119.78708333333,"FRESNO","CA","93721"
1000516,"A1057642","Los Angeles SMSA Limited Partnership",22.9,34.088055555556,-117.64833333333,"UPLAND","CA","91743"
1000517,"A1057643","Los Angeles SMSA Limited Partnership",18.3,33.8025,-118.15338888889,"SIGNAL HILL","CA","90755"
1000642,"A1031927","CCATT LLC",49.4,39.734972222222,-121.61391666667,"PARADISE","CA","95969"
1000695,"A0911312","SBA Towers V, LLC",67.6,38.508888888889,-122.66333333333,"SANTA ROSA","CA","95404"
1001109,"A0476827","KRAWETZ, HOWARD M DBA = K COMM",61,37.113333333333,-121.83694444444,"LOS GATOS","CA","95033"
1001116,"A1012775","Crown Castle GT Company LLC",21.6,37.341666666667,-121.94805555556,"SANTA CLARA","CA","95050"
1001289,"A0122425","SUTRO TOWER INC",297.7,37.755277777778,-122.45277777778,"SAN FRANCISCO","CA","94131"
1001867,"A1012806","Crown Castle GT Company LLC",61.9,36.144666666667,-119.074,"STRATHMORE","CA","93267"
1001868,"A1010484","CCTM1 LLC",33.8,36.855638888889,-121.40563888889,"Hollister","CA","95023"
1001913,"A0819997","SpectraSite Communications, LLC. through American Towers, LLC.",28,38.686444444444,-121.61369444444,"SACRAMENTO","CA","95837.0"
1001914,"A0819998","SpectraSite Communications, LLC. through American Towers, LLC.",14.6,38.183861111111,-122.59847222222,"NOVATO","CA","94952"
1001916,"A0819999","SpectraSite Communications, LLC. through American Towers, LLC.",18.6,37.452638888889,-122.12594444444,"PALO ALTO","CA","94303"
1001924,"A1031880","CCATT LLC",27.1,37.636666666667,-120.93505555556,"MODESTO","CA","95319"
1002087,"A0002298","BEAUMONT CHERRY VALLEY WATER DISTRICT",15.2,33.928888888889,-116.97694444444,"BEAUMONT","CA","92223"
1002109,"A0546248","The Boeing Company",47.5,33.827222222222,-118.15138888889,"LONG BEACH","CA","90712"
1002213,"A1012826","Crown Castle GT Company LLC",21.3,36.839388888889,-119.84888888889,"FRESNO","CA","93711"
1002214,"A1012827","Crown Castle GT Company LLC",40.5,36.129333333333,-120.37108333333,"COALINGA","CA","93210"
1002217,"A1056325","GTE Mobilnet of California Limited Partnership",28.6,36.585833333333,-121.92194444444,"PEBBLE BEACH","CA","93953"
1002221,"A1012829","Crown Castle GT Company LLC",21.9,36.771055555556,-119.73097222222,"FRESNO","CA","93703"
1002225,"A1012830","Crown Castle GT Company LLC",31.4,36.322138888889,-119.35155555556,"VISALIA","CA","93277"
1002267,"A1055641","PTI US TOWERS II, LLC",21.9,34.08775,-117.67380555556,"Upland","CA","91786"
1002277,"A1055640","PTI US TOWERS II, LLC",18.9,34.160361111111,-117.41013888889,"Rialto","CA","92376"
1002282,"A0778618","T-Mobile West LLC",18.3,33.953055555556,-117.38333333333,"RIVERSIDE","CA","92501"
1002289,"A1021641","T-Mobile West Tower LLC",10.4,38.006388888889,-122.03694444444,"CONCORD","CA","94518"
1002291,"A1010485","CCTM1 LLC",17.4,33.812777777778,-116.54222222222,"PALM SPRINGS","CA","92264"
1002292,"A0778621","T-Mobile West LLC",18.6,33.807777777778,-116.50472222222,"PALM SPRINGS","CA","92264"
1002296,"A1010486","CCTM1 LLC",12.2,33.926111111111,-116.85861111111,"BANNING","CA","92220"
1002299,"A1010487","CCTM1 LLC",27.7,33.7425,-117.28388888889,"PERRIS","CA","92570"
1002687,"A1012865","Crown Castle GT Company LLC",57.6,34.880527777778,-118.16230555556,"ROSAMOND","CA","93560"
1002750,"A0003088","BORNSTEIN, DOUG A",33,33.746666666667,-116.30083333333,"BERMUDA DUNES","CA","92203"
1002791,"A1061615","Verizon Wireless (VAW) LLC",24.4,32.809166666667,-116.96333333333,"EL CAJON","CA","92020"
1003100,"A1012885","Crown Castle GT Company LLC",24,37.7675,-122.2175,"OAKLAND","CA","94601"
1003227,"A1023900","STC One LLC",13.7,33.789444444444,-118.03138888889,"GARDEN GROVE","CA","92845"
1003442,"A1023901","STC One LLC",18.6,33.773944444444,-118.07730555556,"SEAL BEACH","CA","90740"
1003700,"A1031833","CCATT LLC",50,36.740388888889,-119.54933333333,"SANGER","CA","93657"
1004475,"A0908715","SANTA CRUZ, COUNTY OF",36.6,36.933611111111,-121.78527777778,"WATSONVILLE","CA","95076"
1005132,"A1031781","CCATT LLC",18.3,33.68225,-117.87561111111,"COSTA MESA","CA","92626"
1005343,"A1010489","CCTM1 LLC",18.6,33.761666666667,-116.31138888889,"PALM DESERT","CA","92211"
1005354,"A1021653","T-Mobile West Tower LLC",25,34.151111111111,-117.67222222222,"UPLAND","CA","91784"
1005377,"A1010491","CCTM1 LLC",18.6,34.076666666667,-117.62055555556,"ONTARIO","CA","91743"
1005760,"A1059107","Sacramento Valley Limited Partnership",26.5,38.63075,-121.39813888889,"SACRAMENTO","CA","95821.0"
1006115,"A1059108","Sacramento Valley Limited Partnership",22.1,39.352416666667,-120.19547222222,"TRUCKEE","CA","96161"
1007374,"A0253992","UNITED STATES CELLULAR CORPORATION",38.1,41.772222222222,-124.235,"CRESCENT CITY","CA","95531"
1007375,"A0917340","Global Tower, LLC. through American Towers, LLC",33.5,41.555,-124.08222222222,"REQUA","CA","95548"
1007376,"A1051719","UNITED STATES CELLULAR CORPORATION",48.8,41.969444444444,-124.18805555556,"CRESCENT CITY","CA","95567"
1007719,"A1075499","American Tower, LLC",141.4,34.227222222222,-118.0675,"ALTADENA","CA","91023"
1007787,"A0834673","SBA Structures, LLC",30.4,35.360277777778,-120.65666666667,"SANTA MARGARITA","CA","93453"
1007898,"A0759100","United States Cellular Corporation",29,38.977527777778,-123.35741666667,"Ukiah","CA","95449"
1008559,"A0010191","FAIRFIELD, CITY OF",30.4,38.286111111111,-122.02861111111,"FAIRFIELD","CA","94533"
1008778,"A1053529","CCATT LLC",16.2,33.852944444444,-117.25488888889,"PERRIS","CA","92570"
1008945,"A1057644","Los Angeles SMSA Limited Partnership",23.2,33.631666666667,-117.83805555556,"IRVINE","CA","92602"
1009049,"A1010492","CCTM1 LLC",24.4,38.643694444444,-121.38725,"NORTH HIGHLANDS","CA","95821.0"
1009095,"A1025314","STC Five LLC",24.4,38.523805555556,-121.46991666667,"SACRAMENTO","CA","95820.0"
1009125,"A1049691","Lotus Bakersfield Corp.",76.2,35.486583333333,-118.88977777778,"BAKERSFIELD","CA","93308"
1009196,"A1055842","California RSA No. 4 Limited Partnership",35.5,37.301805555556,-120.48341666667,"MERCED","CA","95340"
1009393,"A0834676","SBA Structures, LLC",39,35.360277777778,-120.65658333333,"SANTA MARGARITA","CA","93453"
1010050,"A1025334","STC Five LLC",16.1,37.63,-122.43666666667,"SAN BRUNO","CA","94066"
1010318,"A0982468","SpectraSite Communications, LLC. through American Towers, LLC.",31.4,38.642777777778,-121.09147222222,"FOLSOM","CA","95762"
1010320,"A0012362","PACIFIC BELL MOBILE SERVICES",13.7,33.202777777778,-117.33333333333,"OCEANSIDE","CA","92049"
1010346,"A0154390","ABC HOLDING COMPANY DBA = KABC-TV",143.3,34.226944444444,-118.06694444444,"MT WILSON","CA","91023"
1010353,"A0012398","WAGENVOORD, DAVID DBA = WAGENVOORD ADVERTISING",64,36.615555555556,-121.89916666667,"MONTEREY","CA","93940"
1010547,"A0012622","CALLANDER, LARY DBA = C&L SERVICE",167,33.996111111111,-118.35111111111,"LOS ANGELES","CA","90043"
1010560,"A0829138","American Towers, LLC.",65.8,37.850111111111,-122.19266666667,"Orinda","CA","94563"
1010561,"A0816191","American Towers, LLC.",62.5,37.849972222222,-122.19255555556,"Orinda","CA","94563"
1010568,"A0816198","American Towers, LLC.",63.1,37.882361111111,-122.22086111111,"Orinda","CA","94563"
1010626,"A1031712","CCATT LLC",12.8,33.774833333333,-118.06227777778,"SEAL BEACH","CA","90740"
1010998,"A0013161","COLLANTES, ROLANDO DBA = KGEN RADIO POPULAR",132.1,36.204444444444,-119.56555555556,"HANFORD","CA","93230"
1011029,"A1057645","Los Angeles SMSA Limited Partnership",50.6,33.943944444444,-116.89369444444,"BANNING","CA","92220"
1011100,"A1057646","Los Angeles SMSA Limited Partnership",23.2,33.904444444444,-118.25444444444,"COMPTON","CA","90059"
1011101,"A1057647","Los Angeles SMSA Limited Partnership",35.7,34.222777777778,-119.02583333333,"CAMARILLO","CA","93012"
1011102,"A1057648","Los Angeles SMSA Limited Partnership",18.3,33.930277777778,-118.27727777778,"LOS ANGELES","CA","90061"
1011103,"A1057649","Los Angeles SMSA Limited Partnership",32,33.929166666667,-118.30227777778,"LOS ANGELES","CA","90304"
1011104,"A1057650","Los Angeles SMSA Limited Partnership",23.1,34.034166666667,-118.447,"LOS ANGELES","CA","90049"
1011116,"A1057651","Los Angeles SMSA Limited Partnership",32.6,33.8825,-117.55472222222,"CORONA","CA","92877"
1011198,"A1057653","Los Angeles SMSA Limited Partnership",23.2,34.113333333333,-117.97388888889,"IRWINDALE","CA","91706"
1011199,"A1057654","Los Angeles SMSA Limited Partnership",13.7,33.625277777778,-117.69277777778,"LAKE FOREST","CA","92630"
1011200,"A1057655","Los Angeles SMSA Limited Partnership",32.3,34.116388888889,-117.24416666667,"HIGHLAND","CA","92346"
1011235,"A1057656","Los Angeles SMSA Limited Partnership",24.1,33.915222222222,-118.28680555556,"LOS ANGELES","CA","90247"
1011236,"A1057657","Los Angeles SMSA Limited Partnership",21.3,34.12,-118.06416666667,"TEMPLE CITY","CA","91007"
1011238,"A1057658","Los Angeles SMSA Limited Partnership",23.2,33.666388888889,-117.88027777778,"COSTA MESA","CA","92625"
1011240,"A1057659","Los Angeles SMSA Limited Partnership",32.6,34.084722222222,-117.54388888889,"RANCHO CUCAMONGA","CA","91701"
1011241,"A1057660","Los Angeles SMSA Limited Partnership",18.9,34.213,-118.36338888889,"SUN VALLEY","CA","91352"
1011242,"A1057661","Los Angeles SMSA Limited Partnership",29.5,33.881111111111,-117.605,"CORONA","CA","92882"
1011376,"A1057662","Los Angeles SMSA Limited Partnership",23.5,34.103888888889,-117.78583333333,"LA VERNE","CA","91750"
1011377,"A1057663","Los Angeles SMSA Limited Partnership",18.9,34.106666666667,-118.03166666667,"ARCADIA","CA","91007"
1011378,"A1062566","American Towers, LLC",25,33.815,-118.17388888889,"LONG BEACH","CA","90755"
1011379,"A1057665","Los Angeles SMSA Limited Partnership",51.5,33.917777777778,-117.5625,"NORCO","CA","92860"
1011380,"A1057666","Los Angeles SMSA Limited Partnership",22.6,34.130833333333,-118.00172222222,"MONROVIA","CA","91016"
1011381,"A1057667","Los Angeles SMSA Limited Partnership",29.3,34.265,-118.46980555556,"MISSION HILLS","CA","91345"
1011382,"A1057668","Los Angeles SMSA Limited Partnership",23.2,33.868611111111,-117.96083333333,"FULLERTON","CA","92833"
1011383,"A1025358","STC Five LLC",25.6,37.368333333333,-122.08333333333,"MOUNTAIN VIEW","CA","94040"
1011384,"A1025359","STC Five LLC",11.6,37.085166666667,-121.60133333333,"SAN MARTIN","CA","95046"
1011404,"A0972681","SACRAMENTO TOWER JOINT VENTURE",624.5,38.24,-121.50194444444,"WALNUT GROVE","CA","95680"
1011405,"A1010908","Crown Castle Towers 06-2 LLC",138.4,38.630611111111,-120.85691666667,"EL DORADO","CA","95682"
1011488,"A1051021","CHANNEL 51 OF SAN DIEGO ,INC.",60.1,32.6975,-116.93491666667,"SPRING VALLEY","CA","91978"
1011527,"A0829845","KSWB, LLC",68.2,32.696388888889,-116.93611111111,"SAN DIEGO","CA","91978"
1011538,"A1095265","Vertical Bridge CC AM, LLC",208.5,33.879666666667,-118.01380555556,"LA MIRADA","CA","90638"
1011583,"A0392693","Monterey County Broadcasters, Inc.",64.6,36.562888888889,-121.43522222222,"GONZALES","CA","93926"
1011584,"A0392692","Monterey County Broadcasters, Inc.",64.6,36.562611111111,-121.43575,"GONZALES","CA","93926"
1011585,"A0078323","DIOCESE OF SAN BERNARDINO DBA = CARITAS TELECOMMUNICATIONS",41.2,34.064166666667,-117.58361111111,"ONTARIO","CA","91761"
1011586,"A0816204","American Towers, LLC.",43.6,36.206222222222,-121.11472222222,"KING CITY","CA","93930"
1011704,"A0393052","Tulare, County of",61.9,36.281888888889,-119.30677777778,"VISALIA","CA","93277"
1011706,"A1001744","IWG Towers Assets I, LLC",61,36.816888888889,-119.88347222222,"FRESNO","CA","93650"
1011707,"A1054070","CTI Towers Assets III, LLC",95.1,36.955555555556,-120.03380555556,"MADERA","CA","93638"
1011708,"A1012597","Crown Castle MU LLC",73.4,37.240277777778,-120.31633333333,"PLAINSBURG","CA","95365"
1011711,"A1075662","Time Warner Cable Pacific West LLC",43.9,33.680833333333,-117.87416666667,"Costa Mesa","CA","92626"
1011776,"A1023902","STC One LLC",16.2,34.220055555556,-118.38994444444,"NORTH HOLLYWOOD","CA","91605"
1011777,"A1023903","STC One LLC",17.4,34.272944444444,-118.42280555556,"PACOIMA","CA","91340"
1011779,"A1057670","Los Angeles SMSA Limited Partnership",19.5,33.790277777778,-118.14833333333,"LONG BEACH","CA","90804"
1011781,"A1057671","Los Angeles SMSA Limited Partnership",27.7,33.9275,-117.25277777778,"MORENO VALLEY","CA","92553"
1011782,"A1057672","Los Angeles SMSA Limited Partnership",19.8,34.200555555556,-118.47416666667,"VAN NUYS","CA","90001"
1011783,"A1057673","Los Angeles SMSA Limited Partnership",32.3,34.012222222222,-117.43833333333,"RUBIDOUX","CA","92509"
1011785,"A1057674","Los Angeles SMSA Limited Partnership",19.8,33.930583333333,-118.40258333333,"EL SEGUNDO","CA","90245"
1011786,"A1057675","Los Angeles SMSA Limited Partnership",27.4,34.221388888889,-118.39063888889,"NORTH HOLLYWOOD","CA","91605"
1011787,"A1057676","Los Angeles SMSA Limited Partnership",29.3,34.325277777778,-119.03983333333,"SANTA PAULA","CA","93066"
1011788,"A1057677","Los Angeles SMSA Limited Partnership",18.3,33.683055555556,-117.85722222222,"IRVINE","CA","92602"
1011790,"A1057679","Los Angeles SMSA Limited Partnership",60.7,33.715583333333,-117.9095,"SANTA ANA","CA","92701"
1011791,"A1057743","Modoc RSA Limited Partnership",33.8,41.532055555556,-120.17338888889,"CEDARVILLE","CA","96104"
1011792,"A1057744","Modoc RSA Limited Partnership",34.7,40.795277777778,-120.37055555556,"RAVENDALE","CA","96123"
1011793,"A1075833","Modoc RSA Limited Partnership",28,41.483055555556,-120.54913888889,"ALTURAS","CA","96101"
1011940,"A0816208","American Towers, LLC.",92.7,38.495694444444,-121.80786111111,"DIXON","CA","95620"
1011943,"A0014302","FAITH COMMUNICATIONS CORP",18.3,34.611111111111,-117.28972222222,"VICTORVILLE","CA","92307"
1011966,"A0014331","SIERRA BROADCASTING CORPORATION",60,40.453611111111,-120.57166666667,"SUSANVILLE","CA","96127"
1011973,"A1025375","STC Five LLC",8.5,38.108,-122.56455555556,"NOVATO","CA","94915"
1011979,"A0908265","PWM Inc.",67,40.726416666667,-123.97519444444,"KNEELAND","CA","95549"
1012016,"A1059110","Sacramento Valley Limited Partnership",46.3,39.7345,-121.86158333333,"CHICO","CA","95926"
1012018,"A1059111","Sacramento Valley Limited Partnership",45.7,39.516666666667,-122.18611111111,"WILLOWS","CA","95988"
1012020,"A1059112","Sacramento Valley Limited Partnership",34.7,40.194166666667,-122.24888888889,"RED BLUFF","CA","96080"
1012022,"A0733896","Fisher Wireless Services, Inc.",65.5,32.799166666667,-115.57777777778,"El Centro","CA","92243"
1012025,"A1061543","Verizon Wireless (VAW) LLC",64.9,32.699444444444,-115.28111111111,"Bonds Corner","CA","92250"
1012042,"A1023904","STC One LLC",16.8,34.2915,-118.41505555556,"SAN FERNANDO","CA","91340"
1012084,"A1059113","Sacramento Valley Limited Partnership",72.2,38.874611111111,-121.70772222222,"ROBBINS","CA","95676"
1012210,"A0014631","WESTSTAR COMMUNICATIONS III",12.4,36.798611111111,-118.20222222222,"INDEPENDENCE","CA","93526"
1012211,"A0014632","WESTSTAR COMMUNICATIONS III",21.9,37.340555555556,-118.30361111111,"BISHOP","CA","93514"
1012212,"A1084121","Cequel III Communications I dba Suddenlink Communications",19.2,37.365277777778,-118.36888888889,"BISHOP","CA","93514"
1012217,"A0496920","RIVERSIDE, COUNTY OF",25,33.877777777778,-117.57697222222,"CORONA","CA","92882"
1012218,"A0715463","Riverside, County of",18.3,33.789722222222,-117.23111111111,"PERRIS","CA","92570"
1012220,"A0431130","Riverside, County of",36.6,33.962222222222,-117.28083333333,"RIVERSIDE","CA","92507"
1012221,"A0977419","Fox Television Stations, LLC",76,34.224166666667,-118.06333333333,"EL MONTE","CA","91023"
1012222,"A0977420","Fox Television Stations, LLC",60.7,34.224166666667,-118.06333333333,"EL MONTE","CA","91023"
1012244,"A0916007","KCETLink",110.6,34.223888888889,-118.06305555556,"MOUNT WILSON","CA","91023"
1012245,"A0014668","COMMUNITY TELEVISION OF SOUTHERN CALIFORNIA DBA = KCET TV",51.5,35.373611111111,-119.01833333333,"BAKERSFIELD","CA","93301"
1012278,"A0830005","KTXL, LLC",608.7,38.271666666667,-121.50611111111,"WALNUT GROVE","CA","95690.0"
1012280,"A0941015","PWM Inc.",103.6,40.726722222222,-123.97361111111,"KNEELAND","CA","95549"
1012284,"A0864873","Hughes Communications",123.4,37.533055555556,-120.02777777778,"MARIPOSA","CA","95338"
1012286,"A1025396","STC Five LLC",9.8,38.156972222222,-122.56677777778,"NOVATO","CA","94952"
1012294,"A1057680","Los Angeles SMSA Limited Partnership",23.2,33.804722222222,-118.06,"LOS ALAMITOS","CA","90720"
1012295,"A1057681","Los Angeles SMSA Limited Partnership",21.9,34.088805555556,-118.06727777778,"TEMPLE CITY","CA","91780"
1012297,"A1057682","Los Angeles SMSA Limited Partnership",20.7,33.877527777778,-118.23536111111,"COMPTON","CA","90220"
1012298,"A1057683","Los Angeles SMSA Limited Partnership",50.3,34.057333333333,-117.21052777778,"REDLANDS","CA","92359"
1012299,"A1057684","Los Angeles SMSA Limited Partnership",34.8,34.195277777778,-119.17038888889,"OXNARD","CA","93030"
1012300,"A1057685","Los Angeles SMSA Limited Partnership",39.6,34.092777777778,-117.73783333333,"POMONA","CA","91767"
1012301,"A1057686","Los Angeles SMSA Limited Partnership",32.3,34.286111111111,-118.40694444444,"SYLMAR","CA","91331"
1012302,"A1057687","Los Angeles SMSA Limited Partnership",51.8,33.754444444444,-117.18666666667,"SUN CITY","CA","92585"
1012303,"A1057688","Los Angeles SMSA Limited Partnership",25.6,34.079694444444,-117.62769444444,"ONTARIO","CA","91764"
1012304,"A1057689","Los Angeles SMSA Limited Partnership",19.8,33.774833333333,-118.06225,"SEAL BEACH","CA","90740"
1012346,"A0886745","SBA GC Towers, LLC",122.8,39.9625,-121.71222222222,"PARADISE","CA","95973"
1012372,"A1063910","Sinclair Television of Fresno, LLC",147.8,36.667222222222,-118.87916666667,"TULARE COUNTY","CA","93262"
1012373,"A1063909","Sinclair Television of Fresno, LLC",76.8,36.287694444444,-118.83980555556,"SPRINGVILLE","CA","93265"
1012409,"A1059114","Sacramento Valley Limited Partnership",36.6,41.595555555556,-122.87694444444,"FORT JONES","CA","96032"
1012416,"A0906268","SBA GC Towers, LLC",80.8,40.960694444444,-124.06972222222,"McKinleyville","CA","95519"
1012430,"A1087353","Sacramento Valley Limited Partnership",46.6,38.678611111111,-121.82055555556,"WOODLAND","CA","95695"
1012433,"A1059116","Sacramento Valley Limited Partnership",59.4,38.350555555556,-121.39694444444,"SACRAMENTO","CA","95757.0"
1012434,"A1059117","Sacramento Valley Limited Partnership",35.7,38.647222222222,-121.36277777778,"SACRAMENTO","CA","95841.0"
1012436,"A1059118","Sacramento Valley Limited Partnership",31.4,39.276,-120.70880555556,"BLUE CANYON","CA","95715"
1012437,"A1059119","Sacramento Valley Limited Partnership",37.5,38.656,-121.56272222222,"SACRAMENTO","CA","95834.0"
1012438,"A1059120","Sacramento Valley Limited Partnership",31.7,38.498527777778,-121.46438888889,"SACRAMENTO","CA","95823.0"
1012439,"A1059121","Sacramento Valley Limited Partnership",26.5,38.511,-121.50438888889,"SACRAMENTO","CA","95822.0"
1012440,"A1059122","Sacramento Valley Limited Partnership",42.7,38.439166666667,-121.50777777778,"CLARKSBURG","CA","95612"
1012441,"A1059123","Sacramento Valley Limited Partnership",20.1,38.645833333333,-121.41777777778,"SACRAMENTO","CA","95838.0"
1012442,"A1059124","Sacramento Valley Limited Partnership",35.1,38.904333333333,-121.29411111111,"LINCOLN","CA","95648"
1012445,"A1059125","Sacramento Valley Limited Partnership",28,38.68625,-121.39411111111,"SACRAMENTO","CA","95660"
1012525,"A0015022","INTERNATIONAL CHURCH OF THE FOURSQUARE GOSPEL DBA = RADIO STATION KFSG FM",67.8,34.085,-118.20333333333,"LOS ANGELES","CA","90001"
1012545,"A1061539","Verizon Wireless (VAW) LLC",44.8,32.713388888889,-117.12891666667,"San Diego","CA","92014"
1012626,"A1061538","Verizon Wireless (VAW) LLC",30.5,33.008916666667,-116.97058333333,"RAMONA","CA","92064"
1012627,"A1061537","Verizon Wireless (VAW) LLC",16.8,32.896638888889,-117.09366666667,"SAN DIEGO","CA","92014"
1012628,"A1061536","Verizon Wireless (VAW) LLC",50.9,32.819777777778,-117.17280555556,"SAN DIEGO","CA","92111"
1012630,"A1061534","Verizon Wireless (VAW) LLC",13.7,32.809444444444,-117.15166666667,"SAN DIEGO","CA","92123"
1012631,"A1061533","Verizon Wireless (VAW) LLC",32,32.784166666667,-116.97916666667,"EL CAJON","CA","92020"
1012632,"A1061532","Verizon Wireless (VAW) LLC",15.2,33.105277777778,-117.235,"CARLSBAD","CA","92009"
1012633,"A1061531","Verizon Wireless (VAW) LLC",41.1,32.828111111111,-117.14836111111,"SAN DIEGO","CA","92111"
1012634,"A1061530","Verizon Wireless (VAW) LLC",9.1,32.725555555556,-117.24444444444,"SAN DIEGO","CA","92107"
1012635,"A0306093","Borrego Springs Fire Protection District",34.1,33.261388888889,-116.37222222222,"BORREGO SPRINGS","CA","92004"
1012636,"A1061529","Verizon Wireless (VAW) LLC",49.7,33.153638888889,-117.25613888889,"CARLSBAD","CA","92081"
1012637,"A1061528","Verizon Wireless (VAW) LLC",27.4,33.225555555556,-117.36638888889,"OCEANSIDE","CA","92049"
1012638,"A1061527","Verizon Wireless (VAW) LLC",17.4,32.828611111111,-116.94222222222,"SANTEE","CA","92040"
1012648,"A1059129","Sacramento Valley Limited Partnership",31.7,37.857972222222,-121.22547222222,"MANTECA","CA","95231"
1012649,"A1059130","Sacramento Valley Limited Partnership",59.7,38.145472222222,-121.31605555556,"LODI","CA","95258"
1012651,"A1059131","Sacramento Valley Limited Partnership",35.1,37.603027777778,-120.97444444444,"CERES","CA","95307"
1012667,"A0015213","PACIFIC BELL MOBILE SERVICES",18.3,34.223888888889,-118.39277777778,"SUN VALLEY","CA","91352"
1012670,"A0778648","T-Mobile West LLC",14,33.816666666667,-118.18416666667,"SIGNAL HILL","CA","90807"
1012704,"A1021658","T-Mobile West Tower LLC",28.3,35.055277777778,-118.17055555556,"MOJAVE","CA","93501"
1012727,"A1010493","CCTM1 LLC",14.3,33.959166666667,-118.42305555556,"LOS ANGELES","CA","90045"
1012767,"A1021659","T-Mobile West Tower LLC",18.9,34.255277777778,-118.52944444444,"NORTHRIDGE","CA","90001"
1012772,"A1055648","PTI US TOWERS II, LLC",18.3,34.276194444444,-118.37488888889,"Sylmar","CA","91040"
1012819,"A0816214","American Towers, LLC.",42.7,33.008694444444,-116.97094444444,"Ramona","CA","92064"
1012836,"A1075163","American Towers, LLC.",296.4,34.231944444444,-118.0725,"MOUNT WILSON","CA","91001"
1012839,"A1042019","CBS Radio East Inc.",156.5,38.138888888889,-122.53111111111,"NOVATO","CA","94915"
1012840,"A1042020","CBS Radio East Inc.",156.5,38.139722222222,-122.53222222222,"NOVATO","CA","94915"
1012849,"A0829376","United States Cellular Corporation",22.9,39.179111111111,-123.21961111111,"Ujiah","CA","95482"
1012850,"A0254010","UNITED STATES CELLULAR CORPORATION",48.8,39.274166666667,-123.68833333333,"MENDOCINO","CA","95427"
1012852,"A0254012","UNITED STATES CELLULAR CORPORATION",50.3,38.930555555556,-123.14,"HOPLAND","CA","95449"
1012855,"A1042595","Transtower, Inc.",472.1,38.247222222222,-121.50194444444,"WALNUT GROVE","CA","95690.0"
1012887,"A0551273","ABC Radio Los Angeles Assets, LLC",100.5,34.113333333333,-117.99944444444,"IRWINDALE","CA","91706"
1012888,"A0551274","ABC Radio Los Angeles Assets, LLC",100.5,34.114444444444,-117.99916666667,"IRWINDALE","CA","91706"
1012898,"A1072036","Vertical Bridge Towers, LLC",95,36.818611111111,-119.51,"FRESNO","CA","93657"
1012944,"A0893684","UNITED STATES CELLULAR CORPORATION",65.5,41.197111111111,-120.93497222222,"ADIN","CA","96006"
1012945,"A1032442","UNITED STATES CELLULAR CORPORATION",50.3,38.9,-123.04666666667,"HOPLAND","CA","95449"
1012971,"A0728074","SUSQUEHANNA RADIO CORP",62.5,37.650833333333,-122.15,"HAYWARD","CA","94540"
1012972,"A0728076","SUSQUEHANNA RADIO CORP",62.5,37.650555555556,-122.15083333333,"HAYWARD","CA","94540"
1012973,"A0728077","SUSQUEHANNA RADIO CORP",62.5,37.650555555556,-122.15166666667,"HAYWARD","CA","94540"
1012974,"A0728078","SUSQUEHANNA RADIO CORP",62.5,37.650277777778,-122.1525,"HAYWARD","CA","94540"
1012975,"A0728105","SUSQUEHANNA RADIO CORP",62.5,37.651111111111,-122.15222222222,"HAYWARD","CA","94540"
1012989,"A0015587","YOLO LUMBER CO INC",62,38.691111111111,-121.76277777778,"WOODLAND","CA","95776"
1012991,"A0337079","Verizon Wireless Messaging Services, LLC",36.2,33.009444444444,-116.97055555556,"SAN DIEGO","CA","92064"
1013003,"A1031622","CCATT LLC",50,36.369111111111,-119.626,"HANFORD","CA","93230"
1013050,"A0015657","WATSONVILLE MUNICIPAL AIRPORT",17.4,36.933888888889,-121.78916666667,"WATSONVILLE","CA","95076"
1013059,"A0660402","COUNTY OF MONTEREY",30.2,36.692777777778,-121.62666666667,"SALINAS","CA","93905"
1013060,"A1010494","CCTM1 LLC",25.6,36.640833333333,-121.61055555556,"SALINAS","CA","93901"
1013085,"A1011833","PTI US Towers II, LLC",18.3,33.907222222222,-118.39388888889,"EL SEGUNDO","CA","90245"
1013086,"A1010495","CCTM1 LLC",15.5,33.874972222222,-118.24930555556,"CARSON","CA","90746"
1013093,"A0015703","KINGS, COUNTY OF",27.1,36.335555555556,-119.64555555556,"HANFORD","CA","93230"
1013095,"A0015705","KINGS, COUNTY OF",7.6,36.285277777778,-119.78472222222,"LEMOORE","CA","93245"
1013096,"A0015706","KINGS, COUNTY OF",5.5,36.302222222222,-119.65333333333,"HANFORD","CA","93230"
1013097,"A0015707","KINGS, COUNTY OF",5.5,36.302222222222,-119.65222222222,"HANFORD","CA","93230"
1013098,"A0015708","KINGS, COUNTY OF",24.4,35.928611111111,-120.13055555556,"AVENAL","CA","93204"
1013099,"A0015709","KINGS, COUNTY OF",29.2,36.330277777778,-119.66666666667,"HANFORD","CA","93230"
1013100,"A0015710","KINGS, COUNTY OF",12.2,36.098888888889,-119.55083333333,"CORCORAN","CA","93212"
1013101,"A0015711","KINGS, COUNTY OF",14.6,36.100277777778,-119.56416666667,"CORCORAN","CA","93212"
1013102,"A0015712","KINGS, COUNTY OF",14.6,35.259444444444,-119.89805555556,"LEMOORE","CA","93251"
1013103,"A0015713","KINGS, COUNTY OF",12.2,36.003611111111,-120.13027777778,"AVENAL","CA","93204"
1013104,"A0015714","KINGS, COUNTY OF",9.1,36.329166666667,-119.66555555556,"HANFORD","CA","93230"
1013105,"A0015715","KINGS, COUNTY OF",12,36.0075,-119.96,"KETTLEMAN CITY","CA","93239"
1013106,"A0015716","KINGS, COUNTY OF",6,36.003611111111,-120.13027777778,"AVENAL","CA","93204"
1013107,"A0015717","KINGS, COUNTY OF",9,36.331666666667,-119.66555555556,"HANFORD","CA","93230"
1013108,"A0015718","KINGS, COUNTY OF",6.1,36.328888888889,-119.6675,"HANFORD","CA","93230"
1013109,"A0015719","KINGS, COUNTY OF",14,35.928611111111,-120.15611111111,"AVENAL","CA","93204"
1013142,"A1054790","Bicoastal Nor Cal, LLC",49.6,39.013888888889,-122.89527777778,"LAKEPORT","CA","95435"
1013158,"A1072039","Vertical Bridge Towers, LLC",108.2,36.756111111111,-121.50277777778,"SALINAS","CA","93908"
1013173,"A1054139","Los Angeles, City of",106,34.134444444444,-118.32055555556,"LOS ANGELES","CA","90068"
1013174,"A1054140","Los Angeles, City of",71.6,33.738055555556,-118.28027777778,"SAN PEDRO","CA","90731"
1013181,"A1052115","SAN DIEGO COMMUNITY COLLEGE DISTRICT DBA KSDS",62,32.804777777778,-117.17002777778,"SAN DIEGO","CA","92111"
1013210,"A0999538","Alltel Communications Wireless, Inc.",61,37.533333333333,-120.02611111111,"MOUNT BULLION","CA","95338"
1013212,"A0078702","CHOWCHILLA, CITY OF",24,37.122777777778,-120.25888888889,"CHOWCHILLA","CA","93610"
1013213,"A0104517","CHOWCHILLA, CITY OF",18,37.104722222222,-120.26,"CHOWCHILLA","CA","93610"
1013235,"A0626540","CALIFORNIA, STATE OF",43.3,39.245833333333,-120.96555555556,"NEVADA CITY","CA","95959"
1013236,"A0626567","CALIFORNIA, STATE OF",9.1,33.926944444444,-116.85416666667,"BANNING","CA","92220"
1013238,"A0627366","CALIFORNIA, STATE OF",12.8,38.953611111111,-121.08222222222,"AUBURN","CA","95602"
1013239,"A0628351","CALIFORNIA, STATE OF",18.3,38.934722222222,-121.05361111111,"AUBURN","CA","95603"
1013240,"A0626509","CALIFORNIA, STATE OF",28.3,37.3425,-120.61527777778,"ATWATER","CA","95301"
1013241,"A0626494","CALIFORNIA, STATE OF",6.7,38.572777777778,-122.43361111111,"ANGWIN","CA","94508"
1013243,"A0626500","CALIFORNIA, STATE OF",21.9,41.492222222222,-120.55027777778,"ALTURAS","CA","96101"
1013244,"A0627143","CALIFORNIA, STATE OF",19.8,41.187222222222,-120.94444444444,"ADIN","CA","96006"
1013247,"A1031619","CCATT LLC",90.8,36.376611111111,-119.33147222222,"VISALIA","CA","93291"
1013248,"A1031618","CCATT LLC",66.1,35.897472222222,-119.24238888889,"EARLIMART","CA","93219"
1013249,"A1031617","CCATT LLC",22.3,36.361055555556,-119.047,"Woodlake","CA","93221"
1013250,"A1031616","CCATT LLC",59.7,36.537555555556,-119.42822222222,"DINUBA","CA","93618"
1013251,"A1031615","CCATT LLC",62.2,36.3135,-119.31936111111,"VISALIA","CA","93277"
1013252,"A1031614","CCATT LLC",88.7,36.200638888889,-119.38444444444,"TULARE","CA","93274"
1013253,"A1031613","CCATT LLC",67.4,36.025277777778,-119.53588888889,"CORCORAN","CA","93212"
1013254,"A1031612","CCATT LLC",61.9,36.512277777778,-119.29769444444,"CUTLER","CA","93615"
1013255,"A1031611","CCATT LLC",82,36.036805555556,-119.28613888889,"TULARE","CA","93272"
1013256,"A1031610","CCATT LLC",61.6,36.210305555556,-119.21466666667,"TULARE","CA","93274"
1013276,"A0627368","CALIFORNIA, STATE OF",19.8,38.719444444444,-120.99055555556,"SHINGLE SPRINGS","CA","95672"
1013277,"A0735793","CALIFORNIA, STATE OF",18.3,38.255861111111,-119.22566666667,"BRIDGEPORT","CA","93517"
1013278,"A0626706","CALIFORNIA, STATE OF",10.7,38.985833333333,-123.35111111111,"BOONVILLE","CA","95449"
1013280,"A0626623","CALIFORNIA, STATE OF",16.8,37.356666666667,-118.39361111111,"BISHOP","CA","93514"
1013282,"A0627141","CALIFORNIA, STATE OF",36.6,38.059166666667,-122.60416666667,"NOVATO","CA","94903"
1013294,"A0980074","BNSF Railway Co.",76.2,37.533388888889,-120.03202777778,"MOUNT BULLION","CA","95338"
1013295,"A0239170","The Burlington Northern and Santa Fe Railway Co",28,37.360277777778,-120.56888888889,"ATWATER","CA","95301"
1013297,"A0974528","BNSF Railway Co",30.5,36.101083333333,-119.55905555556,"Corcoran","CA","93212"
1013298,"A0015937","BURLINGTON NORTHERN AND SANTA FE RAILWAY COMPANY",21.3,33.8875,-117.60527777778,"CORONA","CA","92880"
1013299,"A0239173","The Burlington Northern and Santa Fe Railway Co",18.3,33.85,-117.65416666667,"SIERRA PEAK","CA","92877"
1013300,"A1041511","UNION PACIFIC RAILROAD COMPANY",94.5,40.054722222222,-122.15338888889,"GERBER","CA","96035"
1013302,"A0429538","UNION PACIFIC RAILROAD COMPANY",21.3,39.245277777778,-120.96555555556,"BANNER MOUNTIAN","CA","95959"
1013303,"A0734594","UNION PACIFIC RAILROAD COMPANY",84.1,39.364472222222,-121.69458333333,"GRIDLEY","CA","95948"
1013304,"A0567294","UNION PACIFIC RAILROAD COMPANY",67,39.716027777778,-121.83741666667,"CHICO","CA","95928"
1013305,"A0550673","UNION PACIFIC RAILROAD COMPANY",87.5,38.738,-121.30291666667,"ROSEVILLE","CA","95678"
1013306,"A0757480","UNION PACIFIC RAILROAD COMPANY",73.2,37.041111111111,-120.15411111111,"BERENDA","CA","93638"
1013307,"A0781175","UNION PACIFIC RAILROAD COMPANY",91.4,37.278305555556,-120.44883333333,"MERCED","CA","95340"
1013308,"A0550672","UNION PACIFIC RAILROAD COMPANY",12.2,37.354111111111,-121.93702777778,"SANTA CLARA","CA","95050"
1013312,"A0758186","UNION PACIFIC RAILROAD COMPANY",88.4,36.062194444444,-119.31555555556,"TIPTON","CA","93272"
1013313,"A0612253","UNION PACIFIC RAILROAD COMPANY",103.6,36.453694444444,-119.48894444444,"TRAVER","CA","93631"
1013315,"A0550671","UNION PACIFIC RAILROAD COMPANY",82.2,35.603611111111,-119.21,"FAMOSO","CA","93250"
1013320,"A0759164","UNION PACIFIC RAILROAD COMPANY",79.2,33.243277777778,-115.51091666667,"NILAND","CA","92257"
1013321,"A0429556","UNION PACIFIC RAILROAD COMPANY",48.7,33.718611111111,-116.20944444444,"INDIO","CA","92201"
1013323,"A0758187","UNION PACIFIC RAILROAD COMPANY",121.9,32.711666666667,-115.12680555556,"MIDWAY WELLS","CA","92250"
1013324,"A0429559","UNION PACIFIC RAILROAD COMPANY",51.8,32.793333333333,-115.55166666667,"EL CENTRO","CA","92243"
1013329,"A0857486","UNION PACIFIC RAILROAD COMPANY",36.6,39.8835,-120.94583333333,"QUINCY","CA","95971"
1013335,"A1013302","Crown Castle GT Company LLC",14,37.316527777778,-121.91633333333,"SAN JOSE","CA","95128"
1013339,"A1031608","CCATT LLC",18.9,33.9075,-118.35333333333,"HAWTHORNE","CA","90250"
1013340,"A1031607","CCATT LLC",20.7,34.034611111111,-118.43833333333,"LOS ANGELES","CA","90064"
1013341,"A1031606","CCATT LLC",18.6,33.961944444444,-118.32694444444,"INGLEWOOD","CA","90301"
1013342,"A1031605","CCATT LLC",18.6,33.926111111111,-118.39194444444,"EL SEGUNDO","CA","90245"
1013343,"A1031604","CCATT LLC",18.6,34.202694444444,-118.34533333333,"BURBANK","CA","91504"
1013345,"A1031603","CCATT LLC",33.2,33.926277777778,-117.25805555556,"MORENO VALLEY","CA","92553"
1013362,"A1031602","CCATT LLC",58.8,39.196833333333,-121.99786111111,"COLUSA","CA","95932"
1013364,"A1031601","CCATT LLC",68.9,39.844777777778,-122.19630555556,"CORNING","CA","96021"
1013366,"A1031600","CCATT LLC",65.5,39.712166666667,-122.00272222222,"HAMILTON","CA","95951"
1013367,"A1082416","AT&T Mobility Spectrum LLC",64.6,39.478555555556,-121.93911111111,"BUTTE CITY","CA","95920"
1013370,"A1031599","CCATT LLC",24.7,34.357055555556,-119.05805555556,"SANTA PAUL","CA","93060"
1013371,"A1031598","CCATT LLC",33.6,34.155638888889,-119.11363888889,"OXNARD","CA","93033"
1013374,"A1057690","Los Angeles SMSA Limited Partnership",32.9,34.063333333333,-117.53638888889,"ONTARIO","CA","91743"
1013387,"A0838029","MOUNT WILSON FM BROADCASTERS INC",62.4,34.249444444444,-118.45444444444,"LOS ANGELES","CA","91345"
1013388,"A0838030","MOUNT WILSON FM BROADCASTERS INC",62.4,34.248611111111,-118.45472222222,"LOS ANGELES","CA","91343"
1013389,"A0838031","MOUNT WILSON FM BROADCASTERS INC",62.4,34.249166666667,-118.45472222222,"LOS ANGELES","CA","91345"
1013390,"A0016038","MOUNT WILSON FM BROADCASTERS INC DBA = KKGO FM",67,34.229166666667,-118.06861111111,"MOUNT WILSON","CA","91001"
1013410,"A1031593","CCATT LLC",65.2,37.775833333333,-121.10619444444,"MANTECA","CA","95366"
1013423,"A1081602","New Cingular Wireless Services, Inc.",23.5,41.003611111111,-121.48225,"FALL RIVER MILLS","CA","96028"
1013427,"A1031592","CCATT LLC",31.7,33.90125,-118.22155555556,"COMPTON","CA","90220"
1013428,"A1031591","CCATT LLC",18.6,34.107777777778,-118.024,"ARCADIA","CA","91006"
1013429,"A1031590","CCATT LLC",19.5,34.084583333333,-117.54333333333,"RANCHO CUCAMONGA","CA","91739"
1013430,"A1031589","CCATT LLC",31,33.793611111111,-117.23305555556,"PERRIS","CA","92570"
1013431,"A1031588","CCATT LLC",28.3,34.195277777778,-118.36722222222,"NORTH HOLLYWOOD","CA","91606"
1013432,"A1031587","CCATT LLC",31.1,33.886972222222,-117.61891666667,"CORONA","CA","92880"
1013436,"A0626759","CALIFORNIA, STATE OF",25.6,33.166666666667,-115.49194444444,"CALIPATRIA","CA","92233"
1013437,"A0626761","CALIFORNIA, STATE OF",21.3,34.243333333333,-119.10594444444,"CAMARILLO","CA","93010"
1013438,"A0679183","CALIFORNIA, STATE OF",16.5,39.802777777778,-121.85780555556,"CHICO","CA","95926"
1013440,"A0626783","CALIFORNIA, STATE OF",29,33.984444444444,-117.6825,"CHINO","CA","91708"
1013441,"A0626784","CALIFORNIA, STATE OF",15.2,33.978333333333,-117.65527777778,"CHINO","CA","91708"
1013442,"A0626868","CALIFORNIA, STATE OF",6.1,38.036944444444,-120.41055555556,"COLUMBIA","CA","95310"
1013443,"A0626858","CALIFORNIA, STATE OF",10.7,38.036111111111,-120.41055555556,"COLUMBIA","CA","95310"
1013445,"A0626870","CALIFORNIA, STATE OF",25.6,37.996111111111,-122.07333333333,"MARTINEZ","CA","94553"
1013446,"A0626872","CALIFORNIA, STATE OF",13.1,34.236666666667,-116.23416666667,"JOSHUA TREE","CA","92252"
1013447,"A0626880","CALIFORNIA, STATE OF",7.3,34.855,-116.79388888889,"YERMO","CA","92311"
1013448,"A0627023","CALIFORNIA, STATE OF",27.4,32.813055555556,-116.91861111111,"EL CAJON","CA","92021"
1013449,"A0627024","CALIFORNIA, STATE OF",28.7,32.820055555556,-115.57055555556,"IMPERIAL","CA","92251"
1013450,"A0627369","CALIFORNIA, STATE OF",13.1,36.771111111111,-119.70138888889,"FRESNO","CA","93650"
1013451,"A0627038","CALIFORNIA, STATE OF",32,36.758055555556,-119.8275,"FRESNO","CA","93728"
1013452,"A0746975","CALIFORNIA, STATE OF",26.2,36.771666666667,-119.70075,"FRESNO","CA","93650"
1013507,"A1041471","HUGHES COMMUNICATIONS",76,37.533361111111,-120.03108333333,"MARIPOSA","CA","95338"
1013527,"A0627318","CALIFORNIA, STATE OF",10.7,36.602777777778,-118.06333333333,"LONE PINE","CA","93545"
1013528,"A0627034","CALIFORNIA, STATE OF",25.9,36.757722222222,-119.82819444444,"FRESNO","CA","93728"
1013529,"A0627043","CALIFORNIA, STATE OF",33.5,36.738333333333,-119.78527777778,"FRESNO","CA","93721"
1013530,"A0627066","CALIFORNIA, STATE OF",30.5,39.222222222222,-121.00138888889,"GRASS VALLEY","CA","95945"
1013531,"A0754193","CALIFORNIA, STATE OF",15.8,39.222805555556,-121.00119444444,"GRASS VALLEY","CA","95945"
1013532,"A0627118","CALIFORNIA, STATE OF",42.7,40.875,-121.77194444444,"BURNEY","CA","96013"
1013533,"A0078924","CALIFORNIA, STATE OF",16.8,40.542777777778,-123.19027777778,"HAYFORK","CA","96041"
1013534,"A0627122","CALIFORNIA, STATE OF",14.9,37.666666666667,-122.10805555556,"HAYWARD","CA","94580"
1013535,"A0627123","CALIFORNIA, STATE OF",10.7,34.136388888889,-117.19583333333,"SAN BERNARDINO","CA","92346"
1013538,"A0627191","CALIFORNIA, STATE OF",12.2,36.8425,-121.36333333333,"HOLLISTER","CA","95023"
1013539,"A0627309","CALIFORNIA, STATE OF",12.5,36.807222222222,-118.20472222222,"INDEPENDENCE","CA","93526"
1013540,"A0714736","CALIFORNIA, STATE OF",41.1,33.751888888889,-116.27288888889,"INDIO","CA","92211"
1013541,"A0627370","CALIFORNIA, STATE OF",14.9,34.028611111111,-118.44694444444,"LOS ANGELES","CA","90001"
1013542,"A0627064","CALIFORNIA, STATE OF",22.9,39.535277777778,-121.46666666667,"OROVILLE","CA","95966"
1013543,"A0627060","CALIFORNIA, STATE OF",25.6,34.0675,-117.61305555556,"ONTARIO","CA","91764"
1013544,"A0627055","CALIFORNIA, STATE OF",9.5,33.155555555556,-116.1675,"BORREGO SPRINGS","CA","92275"
1013545,"A0627051","CALIFORNIA, STATE OF",18.9,35.08,-118.36305555556,"TEHACHAPI","CA","93561"
1013546,"A0627041","CALIFORNIA, STATE OF",14.9,37.741944444444,-122.19722222222,"OAKLAND","CA","94601"
1013547,"A0627037","CALIFORNIA, STATE OF",14.9,37.805277777778,-122.27944444444,"OAKLAND","CA","94601"
1013550,"A0627069","CALIFORNIA, STATE OF",42.7,34.235833333333,-118.53027777778,"NORTHRIDGE","CA","91325"
1013552,"A0627343","CALIFORNIA, STATE OF",18.3,35.057472222222,-118.17202777778,"MOJAVE","CA","93501"
1013553,"A0626934","CALIFORNIA, STATE OF",13.7,36.586944444444,-121.85833333333,"MONTEREY","CA","93940"
1013554,"A0627342","CALIFORNIA, STATE OF",10.7,36.586666666667,-121.85888888889,"MONTEREY","CA","93940"
1013556,"A0627340","CALIFORNIA, STATE OF",21.9,36.761111111111,-120.38694444444,"MENDOTA","CA","93640"
1013558,"A0627336","CALIFORNIA, STATE OF",13.7,35.615833333333,-119.69388888889,"LOST HILLS","CA","93249"
1013575,"A0016258","HANFORD, CITY OF",24.4,36.33,-119.64694444444,"HANFORD","CA","93230"
1013576,"A0016259","HANFORD, CITY OF",24.4,36.329166666667,-119.64666666667,"HANFORD","CA","93230"
1013577,"A0016260","HANFORD, CITY OF",7,36.315833333333,-119.63722222222,"HANFORD","CA","93230"
1013579,"A0016262","HANFORD, CITY OF",12,36.343333333333,-119.64944444444,"HANFORD","CA","93230"
1013580,"A0016263","HANFORD, CITY OF",12,36.331944444444,-119.62888888889,"HANFORD","CA","93230"
1013606,"A0385362","Liberman Broadcasting, Inc.",82,34.284166666667,-118.47222222222,"GRANADA HILLS","CA","91344"
1013607,"A0778097","CONTRA COSTA, COUNTY OF",42.7,37.989722222222,-122.08861111111,"MARTINEZ","CA","94553"
1013617,"A0501501","KPOD, LLC",96.3,41.759444444444,-124.19222222222,"CRESCENT CITY","CA","95531"
1013679,"A0626927","CALIFORNIA, STATE OF",16.8,40.52,-122.29805555556,"REDDING","CA","96001"
1013680,"A0626926","CALIFORNIA, STATE OF",29,34.078611111111,-117.55555555556,"RANCHO CUCAMONGA","CA","91730"
1013681,"A0626924","CALIFORNIA, STATE OF",9.1,33.008333333333,-116.95694444444,"RAMONA","CA","92065"
1013682,"A0735792","CALIFORNIA, STATE OF",13.7,33.040166666667,-116.91188888889,"RAMONA","CA","92065"
1013683,"A0626916","CALIFORNIA, STATE OF",9.1,32.725,-117.24416666667,"SAN DIEGO","CA","92107"
1013684,"A0626914","CALIFORNIA, STATE OF",13.7,35.112777777778,-120.62638888889,"GROVER CITY","CA","93433"
1013686,"A0627065","CALIFORNIA, STATE OF",14.9,34.581388888889,-118.13472222222,"PALMDALE","CA","93550"
1013687,"A0627373","CALIFORNIA, STATE OF",30.5,33.7875,-117.23111111111,"PERRIS","CA","92570"
1013688,"A0627075","CALIFORNIA, STATE OF",10.7,34.138888888889,-117.22333333333,"PATTON","CA","92346"
1013689,"A0627073","CALIFORNIA, STATE OF",13.7,35.674166666667,-120.63833333333,"PASO ROBLES","CA","93446"
1013694,"A0627094","CALIFORNIA, STATE OF",22.9,33.922777777778,-117.41027777778,"RIVERSIDE","CA","92501"
1013695,"A0754195","CALIFORNIA, STATE OF",10.7,40.57575,-122.40586111111,"REDDING","CA","96001"
1013697,"A0627382","CALIFORNIA, STATE OF",21.3,38.627222222222,-121.51222222222,"SACRAMENTO","CA","94203"
1013698,"A0626730","CALIFORNIA, STATE OF",53.3,38.557222222222,-121.48138888889,"SACRAMENTO","CA","94203"
1013699,"A0626739","CALIFORNIA, STATE OF",36.6,38.192222222222,-120.67083333333,"SAN ANDREAS","CA","95249"
1013700,"A0626822","CALIFORNIA, STATE OF",21,32.756111111111,-117.19805555556,"SAN DIEGO","CA","92103"
1013701,"A0626820","CALIFORNIA, STATE OF",29,32.832777777778,-117.1275,"SAN DIEGO","CA","92123"
1013703,"A0626827","CALIFORNIA, STATE OF",41.2,32.825,-117.15972222222,"SAN DIEGO","CA","92111"
1013705,"A0912100","United States Cellular Corporation",25.3,41.483222222222,-120.54911111111,"Alturas","CA","96101"
1013732,"A0931915","SAN DIEGO, COUNTY OF",29,33.149444444444,-116.17527777778,"BANNER","CA","92004"
1013733,"A0931916","SAN DIEGO, COUNTY OF",22.9,32.813611111111,-117.03222222222,"SAN DIEGO","CA","92014"
1013735,"A0931917","SAN DIEGO, COUNTY OF",63.4,32.715833333333,-117.16527777778,"SAN DIEGO","CA","92101"
1013736,"A0931918","SAN DIEGO, COUNTY OF",14.6,32.832222222222,-117.13527777778,"SAN DIEGO","CA","92123"
1013737,"A0931919","SAN DIEGO, COUNTY OF",15,33.294444444444,-116.30805555556,"BORREGO SPRINGS","CA","92004"
1013738,"A0931920","SAN DIEGO, COUNTY OF",29,33.180833333333,-116.31888888889,"BORREGO SPRINGS","CA","92004"
1013739,"A0931921","SAN DIEGO, COUNTY OF",36.6,32.835,-117.13277777778,"SAN DIEGO","CA","92123"
1013819,"A1025415","STC Five LLC",18.3,37.362555555556,-121.94819444444,"SANTA CLARA","CA","95050"
1013821,"A0997150","PACIFIC CASCADE COMMUNICATIONS CORPORATION",139.6,40.623611111111,-122.28138888889,"REDDING","CA","96008"
1013828,"A1072048","Vertical Bridge Towers, LLC",98.8,34.118972222222,-118.39247222222,"BEVERLY HILLS","CA","90210"
1013829,"A0615960","Lazer Broadcasting Corporation",81.1,34.417777777778,-119.81916666667,"SANTA BARBARA","CA","93111"
1013830,"A0615961","Lazer Broadcasting Corporation",81.1,34.418611111111,-119.81861111111,"SANTA BARBARA","CA","93111"
1013851,"A0254023","UNITED STATES CELLULAR CORPORATION",35.1,38.964722222222,-123.66833333333,"MANCHESTER","CA","95459"
1013854,"A1082431","AT&T Mobility Spectrum LLC",56.4,37.367555555556,-120.57188888889,"ATWATER","CA","95301"
1013865,"A1031582","CCATT LLC",31.4,38.101055555556,-121.34919444444,"LODI","CA","95240"
1013885,"A1087537","Capstar Radio Operating Company",109,34.069166666667,-118.19388888889,"LOS ANGELES","CA","90032"
1013886,"A1087538","Capstar Radio Operating Company",132.9,34.069722222222,-118.19388888889,"LOS ANGELES","CA","90032"
1013887,"A1087539","Capstar Radio Operating Company",108.8,34.070277777778,-118.19361111111,"LOS ANGELES","CA","90032"
1013888,"A0999746","American Towers, LLC.",83.5,34.226416666667,-118.06691666667,"La Canada","CA","91023"
1013889,"A0999749","American Towers, LLC.",99.1,34.226583333333,-118.06652777778,"La Canada Flintridge","CA","91023"
1013890,"A1074987","American Tower, LLC",68.3,34.226416666667,-118.06658333333,"La Canada Flintridge","CA","91023"
1013891,"A1072052","Vertical Bridge Towers, LLC",104.5,37.778416666667,-121.36152777778,"TRACY","CA","95330"
1013930,"A0780450","Entravision Communications Corporation",87.8,36.464166666667,-121.29888888889,"SOLEDAD","CA","93960"
1013934,"A1076055","Ostlund,John",92.6,36.488611111111,-119.32888888889,"CUTLER","CA","93618"
1013935,"A1076056","Ostlund,John",92.6,36.488611111111,-119.3275,"CUTLER","CA","93618"
1013936,"A1076057","Ostlund,John",92.6,36.488888888889,-119.32611111111,"CUTLER","CA","93618"
1013937,"A1076058","Ostlund,John",90.6,36.489166666667,-119.32444444444,"CUTLER","CA","93618"
1013953,"A0425783","DEER CREEK BROADCASTING, LLC",68,39.710555555556,-121.78805555556,"CHICO","CA","95928"
1013954,"A0425784","DEER CREEK BROADCASTING, LLC",68,39.710555555556,-121.78888888889,"CHICO","CA","95928"
1013955,"A0425785","DEER CREEK BROADCASTING, LLC",68,39.710277777778,-121.78972222222,"CHICO","CA","95928"
1013956,"A0493406","DEER CREEK BROADCASTING, LLC",89.3,39.946111111111,-121.7225,"CHICO","CA","95973"
1013997,"A0016766","CARE EMERGENCY MEDICAL SERVICES",25.9,35.688333333333,-118.42027777778,"KERNVILLE","CA","93285"
1014016,"A0016789","POMONA, CITY OF",18,34.079444444444,-117.77583333333,"POMONA","CA","91768"
1014041,"A1031578","CCATT LLC",24.4,38.638055555556,-121.40661111111,"SACRAMENTO","CA","94203"
1014045,"A1031577","CCATT LLC",46.9,38.521194444444,-121.53822222222,"SACRAMENTO","CA","95691"
1014047,"A1031576","CCATT LLC",87.5,38.702861111111,-121.765,"WOODLAND","CA","95695"
1014056,"A1031575","CCATT LLC",19.2,38.663194444444,-121.37444444444,"North Highlands","CA","95660.0"
1014059,"A1031574","CCATT LLC",41.1,38.625277777778,-121.56491666667,"Woodland","CA","95691"
1014060,"A1031573","CCATT LLC",31.4,38.90175,-121.30461111111,"LINCOLN","CA","95648"
1014063,"A1031572","CCATT LLC",49.3,38.494388888889,-121.058,"RANCHO MURIETTA","CA","95683"
1014065,"A1031571","CCATT LLC",40.5,38.521111111111,-121.44277777778,"SACRAMENTO","CA","95824.0"
1014080,"A0627059","CALIFORNIA, STATE OF",16.8,37.074444444444,-121.59055555556,"SAN MARTIN","CA","95046"
1014082,"A0626506","STATE OF CALIFORNIA",14.3,37.401111111111,-122.03777777778,"SUNNYVALE","CA","94085"
1014083,"A0626731","CALIFORNIA, STATE OF",79.3,38.595277777778,-121.50222222222,"SACRAMENTO","CA","95811.0"
1014084,"A0626875","CALIFORNIA, STATE OF",30.5,38.719444444444,-120.99055555556,"RESCUE","CA","95672"
1014085,"A0626879","CALIFORNIA, STATE OF",6.7,41.772055555556,-124.23786111111,"CRESCENT CITY","CA","95531"
1014086,"A0626864","STATE OF CALIFORNIA",25,32.586944444444,-116.93861111111,"SAN DIEGO","CA","91909"
1014087,"A0626533","CALIFORNIA, STATE OF",30.5,35.412777777778,-119.04583333333,"BAKERSFIELD","CA","93308"
1014094,"A0284655","INCOMM COMPANY",36.6,39.651111111111,-121.46305555556,"BERRY CREEK","CA","95916"
1014126,"A0490208","New Inspiration Broadcasting Co., Inc",101,38.834444444444,-121.31777777778,"LINCOLN","CA","95648"
1014127,"A0490210","New Inspiration Broadcasting Co., Inc.",101,38.833333333333,-121.31833333333,"LINCOLN","CA","95648"
1014128,"A0490212","New Inspiration Broadcasting Co., Inc.",101,38.832777777778,-121.31916666667,"LINCOLN","CA","95648"
1014129,"A0490213","New Inspiration Broadcasting Co., Inc.",101,38.831944444444,-121.32,"LINCOLN","CA","95648"
1014130,"A0490214","New Inspiration Broadcasting Co., Inc.",101,38.831111111111,-121.32083333333,"LINCOLN","CA","95648"
1014131,"A0490215","New Inspiration Broadcasting Co., Inc.",101,38.831388888889,-121.31861111111,"LINCOLN","CA","95648"
1014135,"A1031570","CCATT LLC",47.2,38.165138888889,-121.72683333333,"RIO VISTA","CA","94571"
1014140,"A1031569","CCATT LLC",57,37.640916666667,-121.27461111111,"VERNALIS","CA","95385"
1014200,"A1031568","CCATT LLC",88.1,36.683861111111,-120.16344444444,"SAN JOAQUIN","CA","93630"
1014201,"A1031567","CCATT LLC",65.5,36.327277777778,-120.22911111111,"TOWNSHIP 185","CA","93210"
1014202,"A1031566","CCATT LLC",90.2,36.486277777778,-120.414,"THREE ROCK","CA","93640"
1014203,"A1031565","CCATT LLC",92,36.784305555556,-119.85316666667,"FRESNO","CA","93722"
1014204,"A1031564","CCATT LLC",31.1,36.798166666667,-119.69758333333,"FRESNO","CA","93612"
1014205,"A1031563","CCATT LLC",58.2,36.791805555556,-119.65030555556,"Fresno","CA","93619"
1014208,"A1031562","CCATT LLC",50.3,36.597777777778,-119.65211111111,"SELMA","CA","93662"
1014209,"A1031561","CCATT LLC",21.6,36.766861111111,-119.72283333333,"FRESNO","CA","93727"
1014214,"A1031559","CCATT LLC",61.5,39.322305555556,-121.66966666667,"LIVE OAK","CA","95948"
1014216,"A1031558","CCATT LLC",40.5,39.463194444444,-121.57441666667,"OROVILLE","CA","95965"
1014222,"A0626856","CALIFORNIA, STATE OF",32,38.449444444444,-122.72527777778,"SANTA ROSA","CA","95401"
1014223,"A0626842","CALIFORNIA, STATE OF",24.4,38.445277777778,-122.75638888889,"SANTA ROSA","CA","95401"
1014225,"A0626835","CALIFORNIA, STATE OF",19.5,34.438611111111,-119.85111111111,"GOLITA","CA","93117"
1014226,"A0626833","CALIFORNIA, STATE OF",24.4,33.708611111111,-117.85055555556,"SANTA ANA","CA","92705"
1014227,"A0626488","CALIFORNIA, STATE OF",16.8,39.585833333333,-120.36861111111,"SIERRAVILLE","CA","96126"
1014228,"A0626831","CALIFORNIA, STATE OF",25.9,35.323611111111,-120.69472222222,"SAN LUIS OBISPO","CA","93401"
1014230,"A0626867","CALIFORNIA, STATE OF",14.9,37.316666666667,-121.94083333333,"SAN JOSE","CA","95002"
1014231,"A0626741","CALIFORNIA, STATE OF",14.9,37.633611111111,-122.40944444444,"SAN BRUNO","CA","94066"
1014232,"A0626824","CALIFORNIA, STATE OF",14.9,37.809444444444,-122.36555555556,"SAN FRANCISCO","CA","94130"
1014235,"A1042071","CBS Radio Inc. of Los Angeles",64.9,34.196944444444,-118.25916666667,"GLENDALE","CA","91046"
1014239,"A1048838","Aperio Communications, LLC",61.9,37.073055555556,-119.43194444444,"MEADOW LAKES","CA","93602"
1014290,"A0922228","Pacific Bell Telephone Company d/b/a AT&T California",36.9,38.927972222222,-119.98441666667,"SOUTH LAKE TAHOE","CA","96150"
1014302,"A0925819","Pacific Bell Telephone Company d/b/a AT&T California",51.5,39.521027777778,-122.196,"WILLOWS","CA","95988"
1014314,"A0933131","Pacific Bell Telephone Company d/b/a AT&T California",23.2,33.008805555556,-116.97136111111,"RANCHO BERNARDO","CA","92064"
1014317,"A0922232","Pacific Bell Telephone Company d/b/a AT&T California",65.3,33.349944444444,-118.35255555556,"AVALON","CA","90704"
1014324,"A1042051","Pacific Bell Telephone Company d/b/a AT&T California",52.3,37.302027777778,-120.48241666667,"MERCED","CA","95340"
1014328,"A0922234","Pacific Bell Telephone Company d/b/a AT&T California",14.9,39.008638888889,-123.36769444444,"BOONVILLE","CA","95415"
1014339,"A0922237","Pacific Bell Telephone Company d/b/a AT&T California",21.4,32.707805555556,-117.24922222222,"SAN DIEGO","CA","92106"
1014340,"A1052125","Pacific Bell Telephone Company d/b/a AT&T California",11.5,32.583777777778,-117.07533333333,"PALM CITY","CA","92014"
1014347,"A1091324","Pacific Bell Telephone Company d/b/a AT&T California",16.8,33.628555555556,-117.69188888889,"EL TORO","CA","92609"
1014349,"A0922241","Pacific Bell Telephone Company d/b/a AT&T California",43.3,33.263277777778,-116.33027777778,"BORREGO SPRINGS","CA","92004"
1014354,"A1054175","Pacific Bell Telephone Company d/b/a AT&T California",44.5,32.750222222222,-117.16044444444,"SAN DIEGO","CA","92103"
1014360,"A0924932","Pacific Bell Telephone Company d/b/a AT&T California",15.5,34.103805555556,-118.09138888889,"SAN GABRIEL","CA","91775"
1014373,"A0924878","Pacific Bell Telephone Company d/b/a AT&T California",12.9,36.467111111111,-116.86341666667,"FURNACE CREEK RANCH","CA","92328"
1014378,"A0922246","Pacific Bell Telephone Company d/b/a AT&T California",24.6,36.604472222222,-117.14491666667,"FURNACE CREEK","CA","92328"
1014380,"A1063852","Pacific Bell Telephone Company d/b/a AT&T California",58.2,37.332777777778,-121.89313888889,"SAN JOSE","CA","95113"
1014383,"A0922248","Pacific Bell Telephone Company d/b/a AT&T California",19.1,36.850861111111,-121.40022222222,"HOLLISTER","CA","95023"
1014390,"A0922249","Pacific Bell Telephone Company d/b/a AT&T California",25.3,37.682083333333,-121.76713888889,"LIVERMORE","CA","94550"
1014392,"A0922250","Pacific Bell Telephone Company d/b/a AT&T California",20.1,37.407361111111,-122.026,"SUNNYVALE","CA","94085"
1014421,"A0079287","KELSHO COMMUNICATIONS DBA = KBCD FM",97,33.632222222222,-117.93777777778,"NEWPORT BEACH","CA","92627:92663"
1014422,"A0626815","Multicultural Radio Broadcasting, Inc.",77.7,34.03,-117.72722222222,"POMONA","CA","91710"
1014423,"A0626816","Multicultural Radio Broadcasting, Inc.",49.1,34.029722222222,-117.7275,"POMONA","CA","91710"
1014431,"A0626676","CALIFORNIA, STATE OF",16.8,34.076388888889,-116.44888888889,"YUCCA VALLEY","CA","92284"
1014432,"A0626673","CALIFORNIA, STATE OF",42.7,33.008611111111,-116.97111111111,"RAMONA","CA","92064"
1014433,"A0626670","CALIFORNIA, STATE OF",25.6,39.526388888889,-122.21138888889,"WILLOWS","CA","95988"
1014434,"A0626662","CALIFORNIA, STATE OF",13.4,39.135833333333,-123.20055555556,"UKIAH","CA","95482"
1014436,"A0626659","CALIFORNIA, STATE OF",12.2,33.734166666667,-117.83333333333,"TUSTIN","CA","92623"
1014437,"A0626655","CALIFORNIA, STATE OF",24.4,33.748611111111,-117.83166666667,"TUSTIN","CA","92701"
1014441,"A0737484","CALIFORNIA, STATE OF",19.8,33.635388888889,-116.16266666667,"THERMAL","CA","92274"
1014442,"A1070727","CALIFORNIA, STATE OF",24.4,38.031111111111,-120.35166666667,"COLUMBIA","CA","95310"
1014447,"A0626499","CALIFORNIA, STATE OF",29,34.330555555556,-119.02444444444,"SANTA PAULA","CA","93066"
1014449,"A0626490","CALIFORNIA, STATE OF",12.2,37.990277777778,-120.37527777778,"SONORA","CA","95370"
1014451,"A0626861","CALIFORNIA, STATE OF",7.6,32.83,-116.97111111111,"SANTEE","CA","92071"
1014487,"A1031556","CCATT LLC",30.8,36.208388888889,-120.30877777778,"COALINGA","CA","93210"
1014490,"A1031555","CCATT LLC",88.1,36.545722222222,-119.75172222222,"CARUTHERS","CA","93725"
1014491,"A1031554","CCATT LLC",47.9,36.721611111111,-119.78213888889,"FRESNO","CA","93650"
1014492,"A1031553","CCATT LLC",86.9,36.850361111111,-120.65094444444,"FIREBAUGH","CA","93622"
1014493,"A1031552","CCATT LLC",88.1,36.669388888889,-119.54688888889,"SANGER","CA","93657"
1014495,"A1031551","CCATT LLC",90.8,36.142277777778,-120.10175,"HURON","CA","93624"
1014511,"A1041979","CBS Radio Stations Inc.",79.2,34.197638888889,-117.28686111111,"SAN BERNARDINO","CA","92322"
1014512,"A1054362","Los Angeles, City of",110,34.016666666667,-118.50027777778,"SANTA MONICA","CA","90401"
1014513,"A1072067","Vertical Bridge Towers, LLC",68,33.86,-116.47436111111,"Cathederal City","CA","92234"
1014514,"A1072068","Vertical Bridge Towers, LLC",68,33.860444444444,-116.47366666667,"Cathederal City","CA","92234"
1014515,"A1072069","Vertical Bridge Towers, LLC",68,33.860861111111,-116.47297222222,"Cathederal City","CA","92234"
1014516,"A1072070","Vertical Bridge Towers, LLC",68,33.861388888889,-116.47227777778,"Cathederal City","CA","92234"
1014517,"A1072071","Vertical Bridge Towers, LLC",68,33.861722222222,-116.47155555556,"Cathederal City","CA","92234"
1014521,"A0017358","FOUCE AMUSEMENT ENTERPRISES INC",47.2,34.191666666667,-118.32916666667,"BURBANK","CA","91501"
1014522,"A1042025","CBS Radio East Inc.",152.1,33.859722222222,-118.34972222222,"TORRANCE","CA","90503"
1014523,"A1042026","CBS Radio East Inc.",114.4,33.860555555556,-118.34916666667,"TORRANCE","CA","90278"
1014524,"A0017361","MIDWEST TELEVISION INC DBA = RADIO STATION KFMB",98,32.841944444444,-117.02694444444,"SAN DIEGO","CA","92014"
1014525,"A0017362","MIDWEST TELEVISION INC DBA = RADIO STATION KFMB",98,32.8425,-117.02583333333,"SAN DIEGO","CA","92014"
1014526,"A0017363","MIDWEST TELEVISION INC DBA = RADIO STATION KFMB",98,32.843055555556,-117.02472222222,"SAN DIEGO","CA","92014"
1014527,"A0017364","MIDWEST TELEVISION INC DBA = TELEVISION STATION KFMB TV",86.9,32.838055555556,-117.25,"SAN DIEGO","CA","92037"
1014533,"A0895738","Nexstar Broadcasting, Inc.",97.8,36.745833333333,-119.28222222222,"SANGER","CA","93675"
1014534,"A0932324","Valley Public Television, Inc.",74.6,36.745833333333,-119.28194444444,"SANGER","CA","93675"
1014563,"A0807829","Momentum Broadcasting LP",171,36.168611111111,-119.25194444444,"TULARE","CA","93274"
1014622,"A0816243","American Towers, LLC.",67.1,39.130805555556,-123.07688888889,"Lakeport","CA","95481"
1014623,"A0360394","TOR Broadcasting",78,39.205555555556,-121.82055555556,"YUBA CITY","CA","95982"
1014627,"A1054479","American Towers, LLC.",103,38.339944444444,-120.72127777778,"JACKSON","CA","95642"
1014628,"A0816247","American Towers, LLC.",79.2,38.020166666667,-120.58577777778,"ANGELS CAMP","CA","95221"
1014632,"A1013308","Crown Castle GT Company LLC",20.7,37.316638888889,-121.94480555556,"SAN JOSE","CA","95002"
1014641,"A0325077","KNTO, Inc.",98.5,37.315833333333,-120.72333333333,"LIVINGSTON","CA","95334"
1014642,"A0895731","Sunbelt Television, Inc. c/o KAZN-TV Licensee LLC",156,34.609416666667,-117.28725,"VICTORVILLE","CA","92307"
1014643,"A0906379","CENTRO CRISTIANO VIDA ABUNDANTE, INC.",57.9,36.711111111111,-119.83416666667,"FRESNO","CA","93706"
1014644,"A0906381","CENTRO CRISTIANO VIDA ABUNDANTE, INC.",57.9,36.711666666667,-119.83416666667,"FRESNO","CA","93706"
1014645,"A0370947","High Desert Broadcasting LLC",63,34.665083333333,-118.01280555556,"LANCASTER","CA","93550"
1014646,"A0370965","High Desert Broadcasting LLC",63,34.665222222222,-118.01227777778,"LANCASTER","CA","93550"
1014647,"A0370954","High Desert Broadcasting LLC",63,34.665361111111,-118.01175,"LANCASTER","CA","93550"
1014648,"A0370960","High Desert Broadcasting LLC",63,34.665527777778,-118.01122222222,"LANCASTER","CA","93550"
1014649,"A0577994","High Desert Broadcasting LLC",106.6,34.874166666667,-118.27416666667,"ROSAMOND","CA","93560"
1014653,"A0891661","SAN BERNARDINO, COUNTY OF",49.3,34.244444444444,-116.88861111111,"BIG BEAR","CA","92315"
1014654,"A0891663","SAN BERNARDINO, COUNTY OF",24.3,34.124444444444,-117.4075,"RIALTO","CA","92376"
1014660,"A0475748","MERCED IRRIGATION DISTRICT - HYDRO",79.2,37.586861111111,-120.27322222222,"SNELLING","CA","95325"
1014679,"A1034348","Cumulus Radio Corporation",83.2,37.575,-121.35472222222,"MODESTO","CA","95385"
1014680,"A1034347","Cumulus Radio Corporation",105.5,37.652777777778,-121.47833333333,"MODESTO","CA","95304"
1014716,"A1031546","CCATT LLC",63,36.334861111111,-119.47519444444,"GOSHEN","CA","93277"
1014718,"A1031545","CCATT LLC",29.3,34.218555555556,-118.38863888889,"SUN VALLEY","CA","91605"
1014719,"A1031544","CCATT LLC",23.2,34.093638888889,-117.73791666667,"CLAREMONT","CA","91767"
1014721,"A1031543","CCATT LLC",18.9,34.067333333333,-118.02441666667,"EL MONTE","CA","91731"
1014722,"A1031542","CCATT LLC",19.2,33.660472222222,-117.70111111111,"IRVINE","CA","92618"
1014723,"A1031541","CCATT LLC",18.6,33.842666666667,-118.16452777778,"LONG BEACH","CA","90712"
1014724,"A1031540","CCATT LLC",28.3,33.818333333333,-116.525,"PALM SPRINGS","CA","92262"
1014725,"A1031539","CCATT LLC",27.7,34.068083333333,-117.58947222222,"ONTARIO","CA","91743"
1014751,"A1087541","Capstar Radio Operating Company",60.6,34.12425,-117.23819444444,"SAN BERNARDINO","CA","92404"
1014752,"A1087542","Capstar Radio Operating Company",60.6,34.124611111111,-117.23772222222,"SAN BERNARDINO","CA","92404"
1014753,"A1087543","Capstar Radio Operating Company",60.6,34.123916666667,-117.23866666667,"SAN BERNARDINO","CA","92404"
1014777,"A1031531","CCATT LLC",64.3,37.362944444444,-118.40805555556,"Bishop","CA","93514"
1014778,"A1031530","CCATT LLC",57.9,36.61575,-118.05783333333,"Lone Pine","CA","93545"
1014799,"A0816250","American Towers, LLC.",66.4,35.087666666667,-119.24261111111,"Bakersfield","CA","93252"
1014800,"A0938287","American Towers, LLC.",63.1,34.296388888889,-119.27333333333,"VENTURA","CA","93001"
1014801,"A1033849","AT&T Corp.",74,38.578666666667,-121.48661111111,"SACRAMENTO","CA","95814.0"
1014802,"A0922537","AT&T Corp.",85.6,33.28025,-116.08522222222,"BORREGO SPRINGS","CA","92004"
1014851,"A0802887","Multicultural Radio Broadcasting, Inc.",63.4,34.085555555556,-118.25805555556,"LOS ANGELES","CA","90001"
1014852,"A0802888","Multicultural Radio Broadcasting, Inc.",62.5,34.085833333333,-118.25805555556,"LOS ANGELES","CA","90001"
1014853,"A0802889","Multicultural Radio Broadcasting, Inc.",63.4,34.086388888889,-118.25777777778,"LOS ANGELES","CA","90026"
1014854,"A0802890","Multicultural Radio Broadcasting, Inc.",63.4,34.085277777778,-118.2575,"LOS ANGELES","CA","90026"
1014855,"A0802891","Multicultural Radio Broadcasting, Inc.",62.5,34.085833333333,-118.2575,"LOS ANGELES","CA","90001"
1014856,"A0802892","Multicultural Radio Broadcasting, Inc.",63.4,34.086111111111,-118.25722222222,"LOS ANGELES","CA","90026"
1014869,"A1054791","Bicoastal Nor Cal, LLC",106.6,40.740833333333,-124.2025,"EUREKA","CA","95503"
1014890,"A1013309","Crown Castle GT Company LLC",10.6,32.654444444444,-116.2225,"JACUMBA","CA","91905"
1014896,"A1013310","Crown Castle GT Company LLC",20.7,32.791722222222,-116.97697222222,"EL CAJON","CA","92020"
1014897,"A0590746","Rattlesnake Mountain Communications",17.1,32.828861111111,-116.94194444444,"LAKESIDE","CA","92040"
1014902,"A1080133","Cellco Partnership",89.9,32.710388888889,-115.06377777778,"Holtville","CA","92250"
1014903,"A0017807","SOUTHERN CELLULAR INC DBA = RAMCELL OF CALIFORNIA",79.2,32.795833333333,-115.49888888889,"EL CENTRO","CA","92251"
1014905,"A0017810","CALIFORNIA STATE UNIVERSITY SACRAMENTO DBA = RADIO STATION KXPR",152.4,38.710555555556,-121.48277777778,"ELVERTA","CA","95626.0"
1014906,"A0017811","CALIFORNIA STATE UNIVERSITY SACRAMENTO DBA = RADIO STATION KXPR",159.7,38.273611111111,-121.50416666667,"WALNUT GROVE","CA","95690.0"
1014908,"A1084120","Cequel III Communications I dba Suddenlink Communications",27.4,39.329166666667,-120.19611111111,"TRUCKEE","CA","96161"
1014909,"A0017814","GTE AIRFONE INCORPORATED",16.4,33.611111111111,-114.70694444444,"BLYTHE","CA","92225"
1014914,"A0804535","PacifiCorp",19.5,41.291027777778,-122.24036111111,"MC CLOUD","CA","96025"
1014920,"A0398349","AGM California / K E R I",62.7,35.571111111111,-119.32583333333,"WASCO","CA","93280"
1014921,"A0398352","AGM California / K E R I",62.7,35.571388888889,-119.32472222222,"WASCO","CA","93280"
1014922,"A0398350","AGM California / K E R I",62.7,35.571944444444,-119.32416666667,"WASCO","CA","93280"
1014923,"A0398351","AGM California / K E R I",62.7,35.571666666667,-119.325,"WASCO","CA","93280"
1014927,"A0017833","PACIFIC & EASTERN DIGITAL TRANSMISSION SERVICE",61,37.882777777778,-122.22083333333,"OAKLAND","CA","94563"
1014930,"A1012598","Crown Castle MU LLC",71.3,38.285444444444,-121.83383333333,"DOZIER","CA","94571"
1014931,"A0017837","PACIFIC & EASTERN DIGITAL TRANSMISSION SERVICE",39,37.726388888889,-122.23,"ALAMEDA","CA","94501"
1014933,"A0017839","PACIFIC & EASTERN DIGITAL TRANSMISSION SERVICE",132,34.05,-118.25916666667,"LOS ANGELES","CA","90017"
1014934,"A0017840","PACIFIC & EASTERN DIGITAL TRANSMISSION SERVICE",15,38.651388888889,-121.38666666667,"SACRAMENTO","CA","95660.0"
1014938,"A0017844","PACIFIC & EASTERN DIGITAL TRANSMISSION SERVICE",25,38.596388888889,-121.27194444444,"RANCHO CORDOVA","CA","95670.0"
1014941,"A0017847","PACIFIC & EASTERN DIGITAL TRANSMISSION SERVICE",54,37.334166666667,-121.89638888889,"SAN JOSE","CA","95113"
1014942,"A0017848","PACIFIC & EASTERN DIGITAL TRANSMISSION SERVICE",36,37.407777777778,-122.02944444444,"SUNNYVALE","CA","94085"
1014954,"A1072075","Vertical Bridge Towers, LLC",73.8,35.359166666667,-118.73,"BENA","CA","93518"
1014956,"A1000125","Lotus Bakersfield Corp.",31.4,35.485555555556,-118.88944444444,"BAKERSFIELD","CA","93308"
1014967,"A1072076","Vertical Bridge Towers, LLC",15.9,35.360555555556,-120.65694444444,"SAN LUIS OBISPO","CA","93453"
1015002,"A0917439","Global Tower, LLC. through American Towers, LLC",92,38.750833333333,-121.35638888889,"ROSEVILLE","CA","95747"
1015013,"A1052636","Punjabi American Media, LLC",59.4,36.769444444444,-119.75138888889,"FRESNO","CA","93703"
1015023,"A1052637","Punjabi American Media, LLC",59.4,36.769444444444,-119.75166666667,"FRESNO","CA","93703"
1015058,"A0017988","TELEMUNDO OF NORTHERN CALIFORNIA INC",98.1,37.484722222222,-121.86527777778,"MILPITAS","CA","95035"
1015062,"A1031523","CCATT LLC",38.4,35.324361111111,-119.00061111111,"BAKERSFIELD","CA","93307"
1015063,"A1031522","CCATT LLC",73.8,35.623611111111,-117.68638888889,"RIDGECREST","CA","93555"
1015064,"A1031521","CCATT LLC",86.6,35.587388888889,-119.79561111111,"LOST HILLS","CA","93249"
1015066,"A1082445","AT&T Mobility Spectrum LLC",86,35.765555555556,-119.28891666667,"DELANO","CA","93215"
1015105,"A0907312","PWM Inc.",102.7,40.726944444444,-123.97388888889,"KNEELAND","CA","95549"
1015108,"A1087674","iHeartMedia Entertainment, Inc.",82,35.344722222222,-118.9925,"BAKERSFILED","CA","93307"
1015109,"A1087675","iHeartMedia Entertainment, Inc.",82,35.345277777778,-118.99305555556,"BAKERSFIRELD","CA","93307"
1015110,"A1087676","iHeartMedia Entertainment, Inc.",96,35.346388888889,-118.99361111111,"BAKERSFIELD","CA","93307"
1015116,"A0820109","SpectraSite Communications, LLC. through American Towers, LLC.",43.9,38.111194444444,-121.37872222222,"LODI","CA","95240"
1015117,"A0820110","SpectraSite Communications, LLC. through American Towers, LLC.",43,37.815083333333,-121.27088888889,"LATHROP","CA","95330"
1015118,"A0820111","SpectraSite Communications, LLC. through American Towers, LLC.",38.7,37.894944444444,-121.27647222222,"STOCKTON","CA","95231"
1015120,"A1031520","CCATT LLC",48.4,36.6535,-121.62541666667,"SALINAS","CA","93901"
1015121,"A0079501","CMT PARTNERSHIP DBA = CELLULAR ONE",27.4,36.355555555556,-121.11472222222,"KING CITY","CA","93927"
1015123,"A0079503","CMT PARTNERSHIP DBA = CELLULAR ONE",18.3,37.776388888889,-122.29083333333,"ALAMEDA","CA","94501"
1015125,"A0079505","CMT PARTNERSHIP DBA = CELLULAR ONE",30.5,37.413888888889,-122.07666666667,"MOUNTAIN VIEW","CA","94035"
1015126,"A1082446","AT&T Mobility Spectrum LLC",31.7,37.688694444444,-122.11988888889,"SAN LORENZO","CA","94580"
1015127,"A1031519","CCATT LLC",21.9,37.400833333333,-122.03019444444,"SUNNYVALE","CA","94089"
1015128,"A1082447","AT&T Mobility Spectrum LLC",46.8,37.367055555556,-121.95283333333,"SANTA CLARA","CA","95050"
1015129,"A0079509","CMT PARTNERSHIP DBA = CELLULAR ONE",30.5,37.390277777778,-121.9175,"SAN JOSE","CA","95131"
1015130,"A0820112","SpectraSite Communications, LLC. through American Towers, LLC.",66.1,37.742611111111,-121.36811111111,"TRACY","CA","95304"
1015131,"A0820113","SpectraSite Communications, LLC. through American Towers, LLC.",75.6,35.93375,-119.92461111111,"Kettleman City","CA","93239"
1015135,"A0820114","SpectraSite Communications, LLC. through American Towers, LLC.",48.4,38.539777777778,-121.37763888889,"SACRAMENTO","CA","95826.0"
1015139,"A1087547","Capstar Radio Operating Company",202.3,38.847777777778,-121.48388888889,"PLEASANT GROVE","CA","95668"
1015140,"A1087548","Capstar Radio Operating Company",201.8,38.848055555556,-121.48305555556,"PLEASANT GROVE","CA","95668"
1015141,"A1087994","Vertical Bridge Towers, LLC",66.4,38.85775,-121.02741666667,"PILOT HILL","CA","95602"
1015142,"A1072079","Vertical Bridge Towers, LLC",81.1,38.857527777778,-121.02827777778,"PILOT HILL","CA","95602"
1015143,"A1087996","Vertical Bridge Towers, LLC",80.7,38.857305555556,-121.02913888889,"PILOT HILL","CA","95602"
1015144,"A1087995","Vertical Bridge Towers, LLC",66.4,38.856861111111,-121.02980555556,"PILOT HILL","CA","95602"
1015145,"A0079531","AMATURO GROUP OF SANTA ROSA LLC DBA = KSRO",58.5,38.438611111111,-122.7475,"SANTA ROSA","CA","95401"
1015146,"A0079533","AMATURO GROUP OF SANTA ROSA LLC DBA = KSRO",55.4,38.438611111111,-122.74861111111,"SANTA ROSA","CA","95401"
1015147,"A0018115","AMATURO GROUP OF SANTA ROSA LLC DBA = KFGY",60.9,38.762222222222,-122.84111111111,"HEALDSBURG","CA","95441"
1015148,"A0079537","AMATURO GROUP OF SANTA ROSA LLC DBA = KMGG",17,38.540277777778,-122.96222222222,"SANTA ROSA","CA","95446"
1015149,"A0820115","SpectraSite Communications, LLC. through American Towers, LLC.",62.1,37.8,-121.17222222222,"MANTECA","CA","95336"
1015150,"A0820116","SpectraSite Communications, LLC. through American Towers, LLC.",50.9,38.134333333333,-121.23405555556,"LODI","CA","95253"
1015151,"A0820117","SpectraSite Communications, LLC. through American Towers, LLC.",11,38.689888888889,-120.90638888889,"SHINGLE SPRINGS","CA","95682"
1015152,"A0820118","SpectraSite Communications, LLC. through American Towers, LLC.",53.9,38.521861111111,-121.53861111111,"WEST SACRAMENTO","CA","95605"
1015153,"A0820119","SpectraSite Communications, LLC. through American Towers, LLC.",65.5,38.494472222222,-121.05836111111,"RANCHO MURIETTA","CA","95683.0"
1015154,"A0820120","SpectraSite Communications, LLC. through American Towers, LLC.",94.8,37.312416666667,-120.84130555556,"Stevinson","CA","95301"
1015161,"A0861659","PEDRAZZI PARTNERSHIP",61,36.53,-121.60972222222,"SALINAS","CA","93925"
1015163,"A0079552","SAN FRANCISCO BAY AREA RAPID TRANSIT DISTRICT",53.6,37.7975,-122.26638888889,"OAKLAND","CA","94607"
1015164,"A0079553","SAN FRANCISCO BAY AREA RAPID TRANSIT DISTRICT",30.5,37.556944444444,-121.97694444444,"FREMONT","CA","94538"
1015165,"A0079554","SAN FRANCISCO BAY AREA RAPID TRANSIT DISTRICT",30.5,37.663888888889,-122.0825,"HAYWARD","CA","94544"
1015166,"A0079555","SAN FRANCISCO BAY AREA RAPID TRANSIT DISTRICT",18.3,37.689166666667,-122.115,"SAN LEANDRO","CA","94578"
1015167,"A0079556","SAN FRANCISCO BAY AREA RAPID TRANSIT DISTRICT",22.9,37.753611111111,-122.19638888889,"OAKLAND","CA","94601"
1015168,"A0079557","SAN FRANCISCO BAY AREA RAPID TRANSIT DISTRICT",30.5,37.754722222222,-122.19638888889,"OAKLAND","CA","94621"
1015169,"A0820121","SpectraSite Communications, LLC. through American Towers, LLC.",33.8,38.388777777778,-121.35466666667,"ELK GROVE","CA","95624.0"
1015175,"A0820122","SpectraSite Communications, LLC. through American Towers, LLC.",42,40.209722222222,-122.24813888889,"RED BLUFF","CA","96080"
1015177,"A0820123","SpectraSite Communications, LLC. through American Towers, LLC.",32,38.573777777778,-121.54327777778,"WEST SACRAMENTO","CA","95605"
1015180,"A0820124","SpectraSite Communications, LLC. through American Towers, LLC.",60,36.505555555556,-119.54325,"KINGSBURG","CA","93631"
1015181,"A0820125","SpectraSite Communications, LLC. through American Towers, LLC.",34.7,35.353111111111,-119.03480555556,"BAKERSFIELD","CA","93301"
1015182,"A0820126","SpectraSite Communications, LLC. through American Towers, LLC.",35.3,39.105055555556,-120.95625,"COLFAX","CA","95713"
1015183,"A0820127","SpectraSite Communications, LLC. through American Towers, LLC.",42.6,38.930944444444,-121.05888888889,"NORTH AUBURN","CA","95603"
1015184,"A0820128","SpectraSite Communications, LLC. through American Towers, LLC.",56.7,37.151166666667,-120.27402777778,"CHOWCHILLA","CA","93610"
1015185,"A1031518","CCATT LLC",37.2,33.883111111111,-117.56333333333,"CORONA","CA","92879"
1015186,"A1031517","CCATT LLC",14,33.665833333333,-117.88027777778,"COSTA MESA","CA","92626"
1015188,"A1066618","CCATT LLC",14.9,33.931361111111,-118.30075,"LOS ANGELES","CA","90047"
1015189,"A1031515","CCATT LLC",37.2,33.917194444444,-117.44477777778,"RIVERSIDE","CA","92501"
1015190,"A1031513","CCATT LLC",23.8,34.086277777778,-118.07002777778,"ROSEMEAD","CA","91770"
1015191,"A1082448","AT&T Mobility Spectrum LLC",60.9,33.835805555556,-117.94772222222,"ANAHEIM","CA","92801"
1015228,"A1063767","Sinclair Bakersfield Licensee, LLC",70.1,35.453,-118.59119444444,"BAKERSFIELD","CA","93205"
1015263,"A0820129","SpectraSite Communications, LLC. through American Towers, LLC.",10.7,37.510027777778,-122.27661111111,"SAN CARLOS","CA","94070"
1015267,"A0971500","American Towers, LLC.",47.5,37.620222222222,-121.92230555556,"Pleasanton","CA","94586"
1015274,"A0079675","REDWOOD EMPIRE PUBLIC TELEVISION, INC. DBA = KEET-TV",71,40.716388888889,-124.20361111111,"EUREKA","CA","95503"
1015295,"A1013313","Crown Castle GT Company LLC",23.5,37.346333333333,-121.923,"SAN JOSE","CA","95002"
1015296,"A1013314","Crown Castle GT Company LLC",23.8,37.362916666667,-121.88338888889,"SAN JOSE","CA","95133"
1015298,"A1013315","Crown Castle GT Company LLC",32,35.353388888889,-119.01955555556,"BAKERSFIELD","CA","93304"
1015303,"A0811665","AGM California, Inc.",77.3,35.348055555556,-119.01,"BAKERSFIELD","CA","93304"
1015304,"A0938037","Bob Wilkins Radio Network Broadcasting, Inc.",91.7,35.351944444444,-118.95888888889,"BAKERSFIELD","CA","93301"
1015342,"A1090054","SAN DIEGO STATE UNIVERSITY DBA , KPBS",67.8,32.848083333333,-117.27641666667,"SAN DIEGO","CA","92037"
1015343,"A1090053","SAN DIEGO STATE UNIVERSITY DBA KPBS",35.7,32.771944444444,-117.0725,"SAN DIEGO","CA","92115"
1015352,"A0977421","Fox Television Stations, LLC",73.8,34.224722222222,-118.06388888889,"LOS ANGELES","CA","91023"
1015353,"A0977422","Fox Television Stations, LLC",44.3,34.224722222222,-118.06361111111,"LOS ANGELES","CA","91023"
1015354,"A1013316","Crown Castle GT Company LLC",34.4,33.225861111111,-117.36558333333,"OCEANSIDE","CA","92049"
1015356,"A1087551","Capstar Radio Operating Company",62.2,36.764166666667,-119.78666666667,"FRESNO","CA","93703"
1015357,"A1072086","Vertical Bridge Towers, LLC",156.9,36.553166666667,-119.75361111111,"FRESNO","CA","93242"
1015361,"A0858841","RZ Radio LLC",43.4,35.039722222222,-118.15,"MOJAVE","CA","93501"
1015362,"A0983194","D&H Broadcasting LLC",62.5,38.942777777778,-119.95805555556,"SOUTH LAKE TAHOE","CA","96150"
1015422,"A0984217","California TV, LLC",86.7,39.958055555556,-121.71472222222,"COHASSET","CA","95973"
1015436,"A0975581","Korean Gospel Broadcasting Network",145,33.944444444444,-117.86222222222,"BREA","CA","91748"
1015438,"A0975582","Korean Gospel Broadcasting Network",145,33.945833333333,-117.86305555556,"BREA","CA","91748"
1015439,"A0975583","Korean Gospel Broadcasting Network",145,33.945,-117.86194444444,"BREA","CA","91748"
1015450,"A0928323","FAMILY STATIONS, INC.",84.1,32.894361111111,-116.92713888889,"LAKESIDE","CA","92040"
1015451,"A0928322","FAMILY STATIONS, INC.",84.1,32.896027777778,-116.92763888889,"LAKESIDE","CA","92040"
1015452,"A0928321","FAMILY STATIONS, INC.",84.1,32.895916666667,-116.92519444444,"LAKESIDE","CA","92040"
1015453,"A0928320","FAMILY STATIONS, INC.",84.1,32.895027777778,-116.92561111111,"LAKESIDE","CA","92040"
1015454,"A0928319","FAMILY STATIONS, INC.",84.1,32.894888888889,-116.9265,"LAKESIDE","CA","92040"
1015455,"A0928318","FAMILY STATIONS, INC.",84.1,32.895416666667,-116.92583333333,"LAKESIDE","CA","92040"
1015456,"A0928317","FAMILY STATIONS, INC.",84.1,32.896166666667,-116.92677777778,"LAKESIDE","CA","92040"
1015463,"A0928310","FAMILY STATIONS, INC.",91.7,33.798888888889,-118.24777777778,"LOS ANGELES","CA","90745"
1015480,"A0599592","KTNQ AM License Corp",147.2,34.033611111111,-117.98222222222,"LOS ANGELES","CA","91746"
1015481,"A0599593","KTNQ AM License Corp",147.2,34.032777777778,-117.98277777778,"LOS ANGELES","CA","91746"
1015482,"A0599594","KTNQ AM License Corp",147.2,34.033611111111,-117.985,"LOS ANGELES","CA","91746"
1015485,"A0592274","KLVE FM LICENSE CORP",31.6,34.228666666667,-118.06794444444,"LOS ANGELES","CA","91001"
1015504,"A0913226","PACIFIC GAS & ELECTRIC COMPANY",30.4,38.251111111111,-122.58111111111,"PETALUMA","CA","94954"
1015509,"A0913227","PACIFIC GAS & ELECTRIC COMPANY",7.9,38.026111111111,-122.01166666667,"PORT CHICAGO","CA","94520"
1015510,"A0913228","PACIFIC GAS & ELECTRIC COMPANY",22,37.690833333333,-121.75222222222,"LIVERMORE","CA","94550"
1015517,"A0913229","PACIFIC GAS & ELECTRIC COMPANY",57.9,38.888916666667,-121.07280555556,"Auburn","CA","95602"
1015518,"A0913230","PACIFIC GAS & ELECTRIC COMPANY",46.9,39.530277777778,-122.19277777778,"WILLOWS","CA","95988"
1015524,"A0913231","PACIFIC GAS & ELECTRIC COMPANY",38.1,39.14,-121.58333333333,"MARYSVILLE","CA","95901"
1015525,"A0913232","PACIFIC GAS & ELECTRIC COMPANY",38.1,39.141111111111,-121.58444444444,"MARYSVILLE","CA","95901"
1015527,"A0913233","PACIFIC GAS & ELECTRIC COMPANY",32,34.914722222222,-120.455,"SANTA MARIA","CA","93455"
1015531,"A0913234","PACIFIC GAS & ELECTRIC COMPANY",26.2,36.216361111111,-121.12658333333,"King City","CA","93930"
1015533,"A0913235","PACIFIC GAS & ELECTRIC COMPANY",61,35.202888888889,-120.84408333333,"AVILA BEACH","CA","93424"
1015534,"A0913236","PACIFIC GAS & ELECTRIC COMPANY",85.6,35.209166666667,-120.85583333333,"AVILA BEACH","CA","93424"
1015553,"A0913237","PACIFIC GAS & ELECTRIC COMPANY",21.3,40.5625,-122.39555555556,"REDDING","CA","96001"
1015556,"A0913238","PACIFIC GAS & ELECTRIC COMPANY",26,37.326666666667,-122.07527777778,"MONTA VISTA","CA","95014-6578"
1015560,"A0913239","PACIFIC GAS & ELECTRIC COMPANY",28.6,37.519444444444,-122.2625,"BELMONT","CA","94070"
1015563,"A0913240","PACIFIC GAS & ELECTRIC COMPANY",45.7,35.403611111111,-119.44972222222,"BUTTONWILLOW","CA","93206"
1015564,"A0913241","PACIFIC GAS & ELECTRIC COMPANY",47.5,37.298888888889,-120.48527777778,"MERCED","CA","95340"
1015574,"A0913242","PACIFIC GAS & ELECTRIC COMPANY",50.9,35.377222222222,-119.02055555556,"BAKERSFIELD","CA","93301"
1015575,"A0913243","PACIFIC GAS & ELECTRIC COMPANY",33,35.316388888889,-119.03916666667,"BAKERSFIELD","CA","93309"
1015578,"A0913245","PACIFIC GAS & ELECTRIC COMPANY",31.4,38.35025,-121.97805555556,"VACAVILLE","CA","95687"
1015581,"A0913246","PACIFIC GAS & ELECTRIC COMPANY",48.7,38.172777777778,-121.72388888889,"RIO VISTA","CA","94571"
1015586,"A0913247","PACIFIC GAS & ELECTRIC COMPANY",39.6,38.429916666667,-122.765,"SANTA ROSA","CA","95401"
1015590,"A0913248","PACIFIC GAS & ELECTRIC COMPANY",29.5,38.497222222222,-122.76,"FULTON","CA","95492"
1015591,"A0686298","PACIFIC GAS & ELECTRIC COMPANY",25,40.78475,-124.12919444444,"EUREKA","CA","95501"
1015625,"A0977037","BNSF Railway Co.",82.3,40.759138888889,-121.25547222222,"JELLICO","CA","96071"
1015627,"A0905535","KERN DELTA CO LLC",66.4,35.201666666667,-119.09166666667,"CONNER","CA","93311"
1015646,"A0217663","Laguna Ranch",15.2,34.408888888889,-119.42361111111,"LAGUNA","CA","93023"
1015649,"A1031505","CCATT LLC",29.9,34.499527777778,-118.27791666667,"AGUA DULCE","CA","93510"
1015656,"A0780451","Entravision Communications Corporation",114,32.911111111111,-115.52861111111,"IMPERIAL","CA","92227"
1015658,"A0780452","Entravision Communications Corporation",77,32.8075,-115.53916666667,"EL CENTRO","CA","92243"
1015662,"A0180991","New Inspiration Broadcasting Co., Inc.",78.3,34.136944444444,-118.22666666667,"LOS ANGELES","CA","90041"
1015663,"A0180995","New Inspiration Broadcasting Co, Inc.",95.1,34.136944444444,-118.22722222222,"LOS ANGELES","CA","90041"
1015664,"A0018726","GTE MOBILNET INCORPORATED:CONTEL CELLULAR INC:GTE MOBILNET OF NORTHWEST OREGON LIMITED PARTNERSHIP:GTE MOBILNET OF OREGON LIMITED PARTNERSHIP",24.4,32.746111111111,-117.15916666667,"SAN DIEGO","CA","92103"
1015667,"A0018729","GTE MOBILNET INCORPORATED:CONTEL CELLULAR INC:GTE MOBILNET OF NORTHWEST OREGON LIMITED PARTNERSHIP:GTE MOBILNET OF OREGON LIMITED PARTNERSHIP",22.5,32.576111111111,-117.11527777778,"IMPERIAL BEACH","CA","91932"
1015669,"A1082452","AT&T Mobility Spectrum LLC",25.9,32.835472222222,-117.15772222222,"SAN DIEGO","CA","92014"
1015678,"A0018741","ETHNIC RADIO OF LOS BANOS INC",61.8,37.097222222222,-120.83277777778,"LOS BANOS","CA","93635"
1015680,"A0018743","ETHNIC RADIO OF LOS BANOS INC",61.8,37.097777777778,-120.83111111111,"LOS BANOS","CA","93635"
1015683,"A0905665","CCO SoCal I, LLC",36.6,34.164722222222,-118.28583333333,"GLENDALE","CA","91201"
1015685,"A1054208","Hearst Stations Inc.",170.2,38.587777777778,-121.49055555556,"SACRAMENTO","CA","95814.0"
1015686,"A1054748","Hearst Stations Inc.",609.7,38.265,-121.49111111111,"WALNUT GROVE","CA","95690.0"
1015693,"A0974015","ELLIS COMMUNICATIONS KDOC LICENSEE, LLC",67,34.187222222222,-117.70111111111,"CLAREMONT","CA","91750"
1015694,"A0905064","Chronicle Holdings, LLC",31.7,33.690277777778,-117.86527777778,"IRVINE","CA","92602"
1015696,"A0891665","SAN BERNARDINO, COUNTY OF",15.2,34.282777777778,-116.89916666667,"BIG BEAR","CA","92315"
1015702,"A0551275","ABC Radio Los Angeles Assets, LLC",93.9,34.174722222222,-118.41027777778,"VAN NUYS","CA","91607"
1015703,"A0551276","ABC Radio Los Angeles Assets, LLC",93.9,34.173888888889,-118.41055555556,"VAN NUYS","CA","91607"
1015704,"A0551277","ABC Radio Los Angeles Assets, LLC",93.9,34.173333333333,-118.41055555556,"VAN NUYS","CA","91607"
1015705,"A0786694","Radio License Holding VIII, LLC",114.7,37.745277777778,-122.37944444444,"SAN FRANCISCO","CA","94102"
1015706,"A0786695","Radio License Holding VIII, LLC",94,37.745833333333,-122.37777777778,"SAN FRANCISCO","CA","94102"
1015707,"A0748794","The Ponderosa Telephone Co.",82,37.097722222222,-119.31875,"SHAVER LAKE","CA","93664"
1015709,"A0895739","Nexstar Broadcasting, Inc.",80,37.070555555556,-119.42611111111,"AUBERRY","CA","93602"
1015710,"A0598767","Cocola Broadcasting Companies, LLC",61.9,37.073055555556,-119.43166666667,"AUBERRY","CA","93602"
1015713,"A0981629","American Towers, LLC.",19.2,32.828,-116.94119444444,"Lakeside","CA","92040"
1015714,"A0903749","NPG OF MONTEREY-SALINAS CA, LLC",68.9,36.534722222222,-121.62166666667,"MONTEREY","CA","93925"
1015715,"A0018784","TARSALA, JAN A",24.4,34.1175,-118.01972222222,"ARCADIA","CA","91006"
1015716,"A0018785","JOHNES, CHARLES H",93.3,35.810277777778,-119.32277777778,"DELANO","CA","93219"
1015717,"A0018786","JOHNES, CHARLES H",93.3,35.810833333333,-119.3225,"DELANO","CA","93219"
1015719,"A0018789","SKYRIDE UNLIMITED INCORPORATED DBA = KAXL FM RADIO",110.6,35.415277777778,-119.23444444444,"BAKERSFIELD","CA","93314"
1015724,"A1054792","Bicoastal Nor Cal, LLC",123.4,39.443055555556,-123.78111111111,"FORT BRAGG","CA","95437"
1015727,"A0592352","Newport Television LLC",52.1,38.669444444444,-122.63222222222,"CALISTOGA","CA","94515"
1015729,"A0018800","RADIO BILINGUE INC KUBO NCE FM",86,32.799166666667,-115.50416666667,"EL CENTRO","CA","92243"
1015730,"A1063086","Time Warner Cable Pacific West LLC",77.4,33.857805555556,-117.86394444444,"ANAHEIM","CA","92806"
1015737,"A0018810","R D V CORPORATION",42.9,33.966666666667,-118.1225,"MONTEBELLO","CA","90240"
1015747,"A1087677","iHeartMedia Entertainment, Inc.",33,33.480833333333,-117.18361111111,"TEMECULA","CA","92590"
1015763,"A0617742","New Inspiration Broadcasting Co, Inc",70.1,37.632777777778,-122.13222222222,"HAYWARD","CA","94545"
1015764,"A0617743","New Inspiration Broadcasting Co, Inc",70.1,37.633055555556,-122.13111111111,"HAYWARD","CA","94545"
1015765,"A0617744","New Inspiration Broadcasting Co, Inc",70.1,37.6325,-122.13083333333,"HAYWARD","CA","94545"
1015766,"A0617745","New Inspiration Broadcasting Co, Inc",70.1,37.632222222222,-122.13194444444,"HAYWARD","CA","94545"
1015768,"A0195615","Hi-Favor Broadcasting,LLC",118.9,33.891666666667,-118.18555555556,"PARAMOUNT","CA","90723"
1015769,"A0195616","Hi-Favor Broadcasting,LLC",63.4,33.892222222222,-118.18472222222,"PARAMOUNT","CA","90723"
1015770,"A0195617","Hi-Favor Broadcasting,LLC",56.1,33.891388888889,-118.18527777778,"PARAMOUNT","CA","90723"
1015777,"A1072089","Vertical Bridge Towers, LLC",144.5,34.850833333333,-118.15694444444,"ROSAMOND","CA","93560"
1015778,"A0506399","Hi-Favor Broadcasting, LLC = KEZY",56.7,34.081944444444,-117.30555555556,"SAN BERNARDINO","CA","92401"
1015782,"A0505203","Threshold Communications",82.8,37.631944444444,-120.75416666667,"WATERFORD","CA","95323"
1015783,"A0505204","Threshold Communications",82.8,37.631944444444,-120.75305555556,"WATERFORD","CA","95323"
1015784,"A0505205","Threshold Communications",82.8,37.631944444444,-120.75194444444,"WATERFORD","CA","95323"
1015785,"A0608081","Diamond Broadcasting",62,38.588055555556,-121.46916666667,"SACRAMENTO","CA","94203"
1015786,"A0018874","GOLDEN PEGASUS FINANCIAL SERVICES, INC.",122.8,37.579444444444,-120.84777777778,"HUGHSON","CA","95326"
1015788,"A0787804","Entravision Communications Corporation",114,37.624722222222,-121.40027777778,"TRACY","CA","95304"
1015841,"A0490292","New Inspiration Broadcasting Co., Inc.",91.1,38.508333333333,-121.58027777778,"WEST SACRAMENTO","CA","95691"
1015842,"A0490293","New Inspiration Broadcasting Co., Inc.",91.1,38.508055555556,-121.58055555556,"WEST SACRAMENTO","CA","95691"
1015843,"A0490294","New Inspiration Broadcasting Co., Inc.",91.1,38.507777777778,-121.58083333333,"WEST SACRAMENTO","CA","95605"
1015853,"A0822277","American Towers, LLC.",30.5,36.929861111111,-119.64155555556,"CLOVIS","CA","93626"
1015855,"A0816283","American Towers, LLC.",57.9,37.0775,-119.43436111111,"AUBERRY","CA","93602"
1015856,"A1033364","Cumulus Radio Corporation",201.2,36.693611111111,-120.05583333333,"KERMAN","CA","93630"
1015868,"A0931311","Entercom California, LLC",76.6,38.710555555556,-121.33083333333,"NORTH HIGHLANDS","CA","95843.0"
1015869,"A0931312","Entercom California, LLC",76.6,38.711111111111,-121.33055555556,"NORTH HIGHLANDS","CA","95843"
1015870,"A0931313","Entercom California, LLC",76.6,38.712222222222,-121.32972222222,"NORTH HIGHLANDS","CA","95843"
1015871,"A0931314","Entercom California, LLC",76.6,38.712777777778,-121.32916666667,"NORTH HIGHLANDS","CA","95843.0"
1015895,"A1072094","Vertical Bridge Towers, LLC",68.6,36.483611111111,-119.26694444444,"YETTEM","CA","93670"
1015896,"A1072095","Vertical Bridge Towers, LLC",68.6,36.485,-119.26722222222,"YETTEM","CA","93670"
1015897,"A1072096","Vertical Bridge Towers, LLC",68.6,36.484722222222,-119.26638888889,"YETTEM","CA","93670"
1015898,"A1072097","Vertical Bridge Towers, LLC",68.6,36.483333333333,-119.26611111111,"YETTEM","CA","93670"
1015899,"A0019041","ORANGE, COUNTY OF",71,33.7825,-117.88805555556,"ORANGE","CA","92856"
1015902,"A1042291","EDI Media, Inc.",214.6,41.305555555556,-120.515,"ALTURAS","CA","96116"
1015914,"A1088692","American Towers, LLC.",71.9,33.868611111111,-118.24808333333,"DOMINGUEZ HILLS","CA","90745"
1015916,"A0838459","Abella Properties, LLC",71,34.261111111111,-119.24194444444,"VENTURA","CA","93003"
1015917,"A0838462","Abella Properties, LLC",73.7,34.260555555556,-119.24194444444,"VENTURA","CA","93003"
1015921,"A0975550","Lotus Los Angeles Corp.",112.8,34.019444444444,-118.34577777778,"LOS ANGELES","CA","90016"
1015922,"A0975551","Lotus Los Angeles Corp.",112.8,34.019388888889,-118.34741666667,"LOS ANGELES","CA","90016"
1015930,"A0858398","SCRIPPS MEDIA, INC.",80.5,32.838888888889,-117.24972222222,"LA JOLLA","CA","92037"
1015932,"A1082232","Pinnacle Towers LLC",38.7,34.071666666667,-117.81286111111,"SAN DIMAS","CA","91773"
1015935,"A1019393","Pinnacle Towers LLC",15.2,34.14525,-117.79694444444,"SAN DIMAS","CA","91773"
1015936,"A0726865","MULOCK FAMILY TRUST ELLERY J MULOCK TRUSTEE",82,35.369694444444,-119.00591666667,"BAKERSFIELD","CA","93301"
1015939,"A0019089","GORDON, WALTER D DBA = GORDONS COMMUNICATIONS",51.8,37.6625,-122.02638888889,"HAYWARD","CA","94542"
1015943,"A0780454","Entravision Communications Corporation",152,38.657222222222,-121.72111111111,"WOODLAND","CA","95776"
1015947,"A0984247","Nexstar Broadcasting, Inc.",87.7,35.438083333333,-118.74063888889,"BAKERSFIELD","CA","93220"
1015950,"A0019102","COSTA MESA, CITY OF",36.6,33.6625,-117.90361111111,"COSTA MESA","CA","92626"
1015951,"A0938246","OVERGAARD BROADCASTING LLC",122.8,36.691611111111,-119.68013888889,"FRESNO","CA","93657"
1015955,"A0019109","LONG BEACH UNIFIED SCHOOL DISTRICT",41,33.8,-118.16333333333,"SIGNAL HILL","CA","90755"
1015957,"A0019111","REGENTS OF THE UNIVERSITY OF CALIFORNIA",50.9,38.5325,-121.77527777778,"DAVIS","CA","95616"
1015958,"A0928309","FAMILY STATIONS, INC.",76,37.533611111111,-120.03166666667,"MARIPOSA","CA","95338"
1015979,"A1085195","Immaculate Heart Media, Inc.",89.3,37.709722222222,-120.72583333333,"WATERFORD","CA","95361"
1015980,"A1085194","Immaculate Heart Media, Inc.",89.3,37.709722222222,-120.72666666667,"WATERFORD","CA","95361"
1015981,"A1085193","Immaculate Heart Media, Inc.",89.3,37.709444444444,-120.7275,"WATERFORD","CA","95361"
1015982,"A1085192","Immaculate Heart Media, Inc.",89.3,37.709166666667,-120.72833333333,"WATERFORD","CA","95361"
1015983,"A1085191","Immaculate Heart Media, Inc.",89.3,37.708888888889,-120.72777777778,"WATERFORD","CA","95361"
1015984,"A0816288","American Towers, LLC.",35.7,34.628777777778,-117.89863888889,"Palmdale","CA","93591"
1015985,"A0816289","American Towers, LLC.",7.9,34.255277777778,-117.36277777778,"CRESTLINE","CA","92322"
1015986,"A0816291","American Towers, LLC.",17.7,36.612388888889,-121.06477777778,"Paicines","CA","95075"
1015990,"A0816293","American Towers, LLC.",39.6,37.81625,-121.17038888889,"Manteca","CA","95336"
1015994,"A0816295","American Towers, LLC.",61.6,33.800277777778,-117.31288888889,"PERRIS","CA","92570"
1015996,"A0816297","American Towers, LLC.",96.6,37.659444444444,-121.93319444444,"Pleasanton","CA","94540"
1015997,"A0816298","American Towers, LLC.",21.3,35.05,-120.04111111111,"SANTA MARIA","CA","93254"
1015998,"A0816299","American Towers, LLC.",55.5,34.646805555556,-118.23994444444,"QUARTZ HILL","CA","93534"
1016002,"A0244291","Sierra Sites Inc",9.1,33.850277777778,-117.65361111111,"CORONA","CA","92877"
1016003,"A0897729","American Towers, LLC.",32.6,35.927638888889,-120.38080555556,"San Ardo","CA","93204"
1016004,"A0019163","JOHN CHIAPPE",15.2,37.913888888889,-121.03694444444,"FARMINGTON","CA","95230"
1016006,"A1013322","Crown Castle GT Company LLC",43.6,36.663583333333,-121.6405,"SALINAS","CA","93901"
1016009,"A1013324","Crown Castle GT Company LLC",127.1,36.054111111111,-119.19594444444,"PORTERVILLE","CA","93257"
1016012,"A1072099","Vertical Bridge Towers, LLC",106.4,35.307777777778,-119.04444444444,"BAKERSFIELD","CA","93313"
1016013,"A1072100","Vertical Bridge Towers, LLC",62.5,35.3075,-119.04388888889,"BAKERSFIELD","CA","93301"
1016014,"A1072101","Vertical Bridge Towers, LLC",62.5,35.307222222222,-119.04555555556,"BAKERSFIELD","CA","93313"
1016019,"A1042027","CBS Radio East Inc.",46.9,37.533361111111,-122.27563888889,"SAN MATEO","CA","94404"
1016020,"A1042028","CBS Radio East Inc.",46.9,37.533111111111,-122.27533333333,"SAN MATEO","CA","94404"
1016021,"A1042029","CBS Radio East Inc.",46.9,37.532805555556,-122.275,"SAN MATEO","CA","94002"
1016035,"A1087552","Capstar Radio Operating Company",84.1,37.895861111111,-122.32444444444,"RICHMOND","CA","94801"
1016036,"A1087553","Capstar Radio Operating Company",84.1,37.895611111111,-122.32511111111,"RICHMOND","CA","94801"
1016037,"A1087554","Capstar Radio Operating Company",78.6,37.827777777778,-122.31416666667,"OAKLAND","CA","94601"
1016038,"A1087555","Capstar Radio Operating Company",78.6,37.827777777778,-122.315,"OAKLAND","CA","94601"
1016039,"A1087556","Capstar Radio Operating Company",78.6,37.827777777778,-122.31583333333,"OAKLAND","CA","94601"
1016098,"A0816303","American Towers, LLC.",40.2,33.592888888889,-117.14830555556,"MURRIETA","CA","92563"
1016099,"A0816304","American Towers, LLC.",31.1,33.225416666667,-117.36638888889,"OCEANSIDE","CA","92049"
1016105,"A0019295","KVLI RADIO INC",68.2,35.632222222222,-118.47611111111,"LAKE ISABELLA","CA","93205"
1016108,"A0362123","FRESNO, COUNTY OF",103.6,36.735194444444,-119.78694444444,"FRESNO","CA","93721"
1016115,"A0185818","PACIFICA FOUNDATION INC DBA = KPFA NCE FM",93.8,37.865277777778,-122.22138888889,"OAKLAND","CA","94705"
1016139,"A1013338","Crown Castle GT Company LLC",11.3,38.186805555556,-122.26441666667,"AMERICAN CANYON","CA","94503"
1016140,"A1013339","Crown Castle GT Company LLC",34.1,37.390722222222,-122.05469444444,"MOUNTAIN VIEW","CA","94035"
1016141,"A1013340","Crown Castle GT Company LLC",110.6,35.453888888889,-119.26166666667,"SHAFTER","CA","93263"
1016146,"A0428453","International Communications Group, Inc. d/b/a Corban Networks",49.7,41.226944444444,-122.24083333333,"MC CLOUD","CA","96025"
1016147,"A0619945","Day Management Corporation",71.3,39.844055555556,-122.19561111111,"KIRKWOOD","CA","96021"
1016149,"A1004356","Frontier California Inc.",30,34.942222222222,-119.685,"NEW CUYAMA","CA","93254"
1016150,"A1004357","Frontier California Inc.",51,34.066666666667,-117.65333333333,"ONTARIO","CA","91762"
1016201,"A1031500","CCATT LLC",24.3,34.090138888889,-117.63441666667,"UPLAND","CA","91786"
1016231,"A0019456","IMPERIAL IRRIGATION DISTRICT",60,33.242777777778,-115.50138888889,"NILAND","CA","92257"
1016233,"A1050409","IMPERIAL IRRIGATION DISTRICT",67,33.670833333333,-116.15777777778,"COACHELLA","CA","92236"
1016234,"A1050408","IMPERIAL IRRIGATION DISTRICT",82.3,32.708055555556,-115.21611111111,"HOLTVILLE","CA","92250"
1016235,"A1050407","IMPERIAL IRRIGATION DISTRICT",67,32.8,-115.53611111111,"EL CENTRO","CA","92243"
1016236,"A1013348","Crown Castle GT Company LLC",39,38.159611111111,-121.70602777778,"RIO VISTA","CA","94571"
1016241,"A1013349","Crown Castle GT Company LLC",59.4,35.308194444444,-119.06088888889,"BAKERSFIELD","CA","93313"
1016276,"A1013351","Crown Castle GT Company LLC",31.4,35.370527777778,-118.97519444444,"BAKERSFIELD","CA","93301"
1016282,"A1013352","Crown Castle GT Company LLC",38.1,35.415555555556,-119.05361111111,"OILDALE","CA","93308"
1016292,"A1056326","GTE Mobilnet of California Limited Partnership",15.2,37.502638888889,-122.49266666667,"PRINCETON","CA","94038"
1016356,"A0816305","American Towers, LLC.",67.1,38.641666666667,-121.09133333333,"SACRAMENTO","CA","95762"
1016358,"A0985665","Punjabi American Media, LLC",60.5,38.591388888889,-121.46433333333,"SACRAMENTO","CA","94203"
1016385,"A0019662","TIGRE RADIO CORPORATION DBA = KLFA FM RADIO",84.1,36.38,-121.21694444444,"GREENFIELD","CA","93960"
1016390,"A0019667","PHILLIPP, JOHN T",19.8,34.095277777778,-117.7975,"SAN DIMAS","CA","91773"
1016420,"A1013362","Crown Castle GT Company LLC",31.7,37.408361111111,-122.02466666667,"SUNNYVALE","CA","94089"
1016421,"A1013363","Crown Castle GT Company LLC",20.4,38.112694444444,-122.54969444444,"NOVATO","CA","94915"
1016423,"A1094310","Crown Castle GT Company LLC",24.4,38.977027777778,-123.35738888889,"BOONVILLE","CA","95449"
1016424,"A0810462","New Towers LLC",93,37.608611111111,-120.65166666667,"MONTPELIER","CA","95323"
1016426,"A0445589","Communication Enterprises, Inc.",81,36.599722222222,-119.28416666667,"ORANGE COVE","CA","93647"
1016427,"A0302757","Chroman,Lawrence",85,35.826111111111,-119.30416666667,"EARLIMART","CA","93219"
1016428,"A1050271","New Towers LLC",96,36.704138888889,-119.74283333333,"FRESNO","CA","93725"
1016430,"A0399564","Sanchez,Yldefonso",79,37.283611111111,-120.40388888889,"MERCED","CA","95340"
1016432,"A0810464","New Towers LLC",70.1,37.688472222222,-121.06886111111,"Salida","CA","95368"
1016436,"A0841054","New Towers LLC",76.8,36.236055555556,-119.30122222222,"TULARE","CA","93274"
1016437,"A0710882","MULLEN,TIMOTHY",63,35.522222222222,-119.10611111111,"CAWELO","CA","93263"
1016438,"A0905549","Susquehanna Radio Corp.",93.9,37.54725,-122.23272222222,"REDWOOD CITY","CA","94061"
1016439,"A0728160","Susquehanna Radio Corp.",169.8,37.547222222222,-122.23444444444,"REDWOOD CITY","CA","94061"
1016441,"A0019726","COMMUNICATION ENTERPRISES INC",51.8,35.380555555556,-119.01027777778,"BAKERSFIELD","CA","93301"
1016446,"A0972768","NEW MEDIA BROADCASTING, INC.",92.9,36.325888888889,-119.56786111111,"HANFORD","CA","93230"
1016447,"A0972769","NEW MEDIA BROADCASTING, INC.",92.9,36.326666666667,-119.56669444444,"HANFORD","CA","93230"
1016500,"A0820132","SpectraSite Communications, LLC. through American Towers, LLC.",21.6,37.667333333333,-122.10880555556,"HAYWARD","CA","94580"
1016571,"A0019891","REDDING, CITY OF",18,40.579722222222,-122.41944444444,"REDDING","CA","96001"
1016585,"A1013366","Crown Castle GT Company LLC",34.7,37.713472222222,-122.15555555556,"SAN LEANDRO","CA","94577"
1016588,"A1013367","Crown Castle GT Company LLC",21.3,37.639388888889,-122.40863888889,"SAN BRUNO","CA","94080"
1016791,"A1013402","Crown Castle GT Company LLC",21,38.328611111111,-121.99694444444,"VACAVILLE","CA","95687"
1016793,"A1013403","Crown Castle GT Company LLC",24.1,37.684666666667,-122.13497222222,"SAN LEANDRO","CA","94580"
1016801,"A0827422","SBA Towers IV, LLC",132,37.991722222222,-121.28855555556,"Stockton","CA","95201"
1016802,"A1054793","Bicoastal Nor Cal, LLC",51.8,39.168305555556,-123.21397222222,"UKIAH","CA","95482"
1016834,"A0020212","POWER CURVE INC DBA = KNRO RADIO",96.6,40.620277777778,-122.33333333333,"REDDING","CA","96001"
1016853,"A0431412","SCA-Palo Alto, LLC",53.3,37.484444444444,-122.13555555556,"PALO ALTO","CA","94303"
1016955,"A0831787","Impact Radio, Inc.",63,33.931111111111,-117.39777777778,"RIVERSIDE","CA","92501"
1016956,"A0831788","Impact Radio, Inc.",63,33.931388888889,-117.3975,"RIVERSIDE","CA","92501"
1016957,"A0831789","Impact Radio, Inc.",63,33.931666666667,-117.39722222222,"RIVERSIDE","CA","92501"
1016958,"A0831790","Impact Radio, Inc.",63,33.931944444444,-117.39694444444,"RIVERSIDE","CA","92504"
1017033,"A1013407","Crown Castle GT Company LLC",26.5,35.396361111111,-118.88597222222,"BAKERSFIELD","CA","93306"
1017039,"A1013408","Crown Castle GT Company LLC",44.5,35.079305555556,-118.36338888889,"TEHACHAPI","CA","93561"
1017042,"A1004358","Frontier California Inc.",30.4,36.616111111111,-118.04222222222,"LONE PINE","CA","93545"
1017046,"A1013409","Crown Castle GT Company LLC",59.4,37.077388888889,-120.21038888889,"CHOWHILLA","CA","93610"
1017049,"A1013410","Crown Castle GT Company LLC",45.4,37.367833333333,-120.58216666667,"ATWATER","CA","95388"
1017109,"A1013413","Crown Castle GT Company LLC",31.4,35.499277777778,-119.12619444444,"BAKERSFIELD","CA","93263"
1017110,"A1013414","Crown Castle GT Company LLC",60.7,35.038361111111,-118.00638888889,"CALIFORNIA CITY","CA","93504"
1017174,"A1013420","Crown Castle GT Company LLC",126.5,36.953972222222,-120.82147222222,"LOS BANOS","CA","93635"
1017175,"A1013421","Crown Castle GT Company LLC",57.6,37.258055555556,-120.99816666667,"GUSTINE","CA","95322"
1017178,"A1013423","Crown Castle GT Company LLC",22.5,39.117027777778,-123.23338888889,"UKIAH","CA","95482"
1017222,"A1056284","Fresno MSA Limited Partnership",57.6,35.411305555556,-118.96411111111,"BAKERSFIELD","CA","93306"
1017244,"A1031476","CCATT LLC",18.6,34.2435,-118.46661111111,"SOUTH MISSION HILLS","CA","91343"
1017312,"A0907433","SpectraSite Communications, LLC. through American Towers, LLC.",25.6,37.397333333333,-122.05127777778,"MOUNTAIN VIEW","CA","94043"
1017315,"A1035342","SpectraSite Communications, LLC. through American Towers, LLC.",10.1,38.183,-122.26227777778,"AMERICAN CANYON","CA","94503"
1017317,"A0820137","SpectraSite Communications, LLC. through American Towers, LLC.",16.2,38.280944444444,-122.31175,"NAPA","CA","94558"
1017320,"A0820138","SpectraSite Communications, LLC. through American Towers, LLC.",46.9,37.955555555556,-122.35983333333,"RICHMOND","CA","94801"
1017658,"A0740605","RAYTHEON COMPANY",28.7,33.881944444444,-117.95666666667,"FULLERTON","CA","92833"
1017672,"A0021211","POWER CURVE INC DBA = KNRO RADIO",93,40.620555555556,-122.3325,"REDDING","CA","96001"
1017686,"A1013428","Crown Castle GT Company LLC",91.1,35.12225,-118.20775,"MOJAVE","CA","93501"
1017716,"A1010499","CCTM1 LLC",18.6,33.674722222222,-117.88833333333,"COSTA MESA","CA","92626"
1017815,"A1013434","Crown Castle GT Company LLC",59.1,36.790833333333,-119.65027777778,"CLOVIS","CA","93619"
1017817,"A1013435","Crown Castle GT Company LLC",47.9,36.821333333333,-119.69375,"CLOVIS","CA","93612"
1017823,"A0021377","DANIEL, KEN DBA = VIDEO ENGINEERING",9.3,36.795277777778,-121.90583333333,"CARMEL","CA","95039"
1017889,"A0021458","STATE OF CALIFORNIA",25.9,33.928888888889,-117.57055555556,"NORCO","CA","92860"
1017908,"A1013436","Crown Castle GT Company LLC",57.3,35.339777777778,-118.98125,"BAKERSFIELD","CA","93307"
1017909,"A1013437","Crown Castle GT Company LLC",88.7,36.258694444444,-119.38583333333,"TULARE","CA","93274"
1017910,"A1013438","Crown Castle GT Company LLC",90.5,36.543694444444,-120.00705555556,"FRESNO","CA","93627"
